stop_id,stop_name,stop_lat,stop_lon,location_type,parent_station,platform_code
9021025000417000,Golfängen,65.594725,22.167067,1,,
9021025000447000,Bensbyvägen,65.597655,22.175341,1,,
9021025000451000,Kronanvägen,65.599112,22.185453,1,,
9021025000971000,Luleå Airport,65.549151,22.124070,1,,
9021025005001000,Arvidsjaur Busstation,65.592433,19.179147,1,,
9021025005002000,Brännberg/arv,65.306111,19.542323,1,,
9021025005003000,Ö Långträsk Väg 95,65.678668,18.825022,1,,
9021025005004000,Norrmalm Väg 95,65.734753,18.631908,1,,
9021025005005000,Baktoive,65.769206,18.538890,1,,
9021025005006000,Akkavare,65.648321,19.218780,1,,
9021025005007000,Rönnberg,65.707092,19.309268,1,,
9021025005008000,Auktsjaur Hpl väg 45,65.747275,19.408769,1,,
9021025005023000,Åkroken Väg 94,65.677230,20.115404,1,,
9021025005025000,Burmabron,65.954493,19.523107,1,,
9021025005027000,Renvallen Väg 95,65.611782,19.062207,1,,
9021025005028000,Arjeplog Vsk väg 45,65.609305,18.980247,1,,
9021025005029000,Kläppen,65.600834,18.880012,1,,
9021025005030000,Avaviken,65.608098,18.658879,1,,
9021025005032000,Fiskträsk,65.581086,18.500798,1,,
9021025005033000,Månsträsk,65.561197,18.675216,1,,
9021025005041000,Fjällbonäs,65.585214,19.358723,1,,
9021025005042000,Pjesker väg 94,65.581498,19.386573,1,,
9021025005043000,Renträsk,65.589961,19.465530,1,,
9021025005044000,Deppis väg 94,65.603210,19.578503,1,,
9021025005046000,Granbo,65.587077,19.392159,1,,
9021025005047000,Tallnäs,65.525069,19.628497,1,,
9021025005048000,Pjesker,65.518577,19.688120,1,,
9021025005049000,Abborrträsk Konsum,65.448159,19.383648,1,,
9021025005056000,Svartliden,65.349724,19.493417,1,,
9021025005057000,Glommersträsk Finnbergs,65.260948,19.633937,1,,
9021025005064000,Vuotner,65.660707,19.723598,1,,
9021025005065000,Lauker väg 94,65.658156,19.787623,1,,
9021025005066000,Lauker,65.652602,19.803136,1,,
9021025005069000,Rålund,65.470849,19.352098,1,,
9021025005070000,Abborrträsk Vsk,65.446049,19.374532,1,,
9021025005071000,Voutner Östra,65.660829,19.735568,1,,
9021025005072000,Arvidsjaurs Hälsocentral,65.595586,19.168118,1,,
9021025005073000,Arvidsjaurs Flygplats,65.577359,19.301378,1,,
9021025005085000,Arvidsjaur Storgatan Laponia,65.589663,19.184995,1,,
9021025005086000,Arvidsjaur Storgatan Sandbacken,65.585542,19.197087,1,,
9021025005087000,Moskosel Byn,65.873552,19.456556,1,,
9021025005089000,Moskosel Vildmarkshallen,65.873602,19.450287,1,,
9021025005099000,Moskosel Storstugvägen,65.873589,19.456517,1,,
9021025005100000,Roknäs Infjärdenvägen vsk.551,65.338762,21.231219,1,,
9021025005399000,Solberg,66.006307,18.107272,1,,
9021025006001000,Arjeplog Busstation,66.052749,17.897508,1,,
9021025006004000,Arjeplog Öberget,66.046691,17.858999,1,,
9021025006005000,Arjeplog Torget,66.051621,17.888054,1,,
9021025006006000,Korsträsk,66.035193,17.370000,1,,
9021025006007000,Radnejaur,65.978537,18.216182,1,,
9021025006008000,Allejaur,65.888811,18.379274,1,,
9021025006009000,Fälloheden Väg 95,65.819321,18.443297,1,,
9021025006015000,Racksund,66.042235,17.622811,1,,
9021025006016000,Sälla,66.066870,17.809729,1,,
9021025006018000,Loholm,66.115068,17.297731,1,,
9021025006019000,Laisvall,66.130905,17.164790,1,,
9021025006020000,Hällbacken_Arj,66.241083,16.973312,1,,
9021025006021000,Gauto,66.255459,16.746188,1,,
9021025006022000,Adolfström,66.278088,16.650631,1,,
9021025006023000,Loholm Vsk 95,66.135526,17.369759,1,,
9021025006024000,Stibma,66.015584,17.667715,1,,
9021025006025000,Jutis,66.248398,17.208928,1,,
9021025006027000,Jäckvik Affären,66.387317,16.966561,1,,
9021025006032000,Sandviken Hpl väg 95,66.627297,16.216988,1,,
9021025006033000,Sakkavare,66.124110,17.845952,1,,
9021025006038000,Rävudden,66.435244,18.429654,1,,
9021025006045000,Dainak Hpl V95,66.073036,17.568272,1,,
9021025006050000,Kålmis Vsk-V95,66.041572,18.038813,1,,
9021025006056000,Innervik,65.910583,17.566804,1,,
9021025006061000,Rebak,65.769615,17.672533,1,,
9021025006068000,Mellanström Vsk,65.844327,18.024630,1,,
9021025006070000,Långviken,65.775705,18.202327,1,,
9021025006071000,Kurrokvejk,65.995459,17.914933,1,,
9021025006072000,Slagnäs Bensinstation,65.585425,18.164822,1,,
9021025006075000,Gasa,65.697380,18.070547,1,,
9021025006076000,Kallön Vsk,65.754976,18.029631,1,,
9021025006079000,Ånge/arj,65.923942,17.913680,1,,
9021025006083000,Ringselet,66.443861,16.820245,1,,
9021025006096000,Rengård,66.085060,17.717365,1,,
9021025006097000,Myrbacka,65.910950,18.342624,1,,
9021025006104000,Aspberg,65.847951,17.946460,1,,
9021025006105000,Kasker,65.855145,18.008079,1,,
9021025006106000,Björklund/arj,66.182124,17.312841,1,,
9021025006109000,S Laisvik,66.233131,17.365017,1,,
9021025006110000,Svartberget,66.319960,17.310318,1,,
9021025006111000,Skogalid,66.420592,17.747346,1,,
9021025006113000,Polcirkeln väg 95,66.552184,16.337202,1,,
9021025006117000,Racksund väg 95,66.070092,17.613423,1,,
9021025006118000,Galtisjaur,66.138641,18.025332,1,,
9021025006119000,Arjeplog Ok,66.051036,17.900105,1,,
9021025006120000,Kyrkholmskolan,66.046377,17.877074,1,,
9021025006121000,Svelleholm,66.091695,17.923290,1,,
9021025006127000,Maskaur,65.892405,17.557658,1,,
9021025006129000,Bellonäs,65.901620,17.889347,1,,
9021025006130000,Nyby,65.666352,17.756441,1,,
9021025006133000,Hällvik,66.119669,17.889029,1,,
9021025010001000,Jokkmokk Busstation,66.608032,19.829311,1,,
9021025010002000,Jokkmokk Àjtte,66.603904,19.843148,1,,
9021025010004000,Jokkmokk Åsgatan,66.604212,19.836035,1,,
9021025010005000,Vuollerim COOP,66.427999,20.594004,1,,
9021025010006000,Voullerim 6000,66.435571,20.611111,1,,
9021025010007000,Vuollerim förskola,66.430290,20.628127,1,,
9021025010011000,Porjus ICA,66.959146,19.817449,1,,
9021025010019000,Vuollerim Coop,66.430710,20.604629,1,,
9021025010026000,Murjek Järnvägsstation,66.483539,20.878342,1,,
9021025010028000,Porsi,66.473198,20.624553,1,,
9021025010029000,Kalludden,66.519571,20.544073,1,,
9021025010031000,Nedre Kuoka,66.563031,20.494763,1,,
9021025010033000,Nordanå,66.539165,20.520274,1,,
9021025010040000,Notudden Campingen väg 97,66.593710,19.889556,1,,
9021025010041000,Mattisudden vsk väg 97,66.567033,19.986823,1,,
9021025010042000,Själlarim väg 97,66.511593,20.242392,1,,
9021025010043000,Koskats väg 97,66.484987,20.276416,1,,
9021025010056000,Jokkmokk Västra skolan,66.605262,19.828025,1,,
9021025010061000,Vaikijaur Väg 295,66.675393,19.750182,1,,
9021025010062000,Klubbudden Väg 295,66.711799,19.598812,1,,
9021025010063000,Randijaur Väg 295,66.772330,19.313171,1,,
9021025010064000,Randijaur Byn,66.768386,19.277137,1,,
9021025010066000,Tjåmotis Väg 295,66.911405,18.575693,1,,
9021025010068000,Njavve,66.882749,18.260681,1,,
9021025010069000,Årrenjarka Fjällanläggning,66.886472,18.022118,1,,
9021025010071000,Kvikkjokk Kyrkan,66.951842,17.720341,1,,
9021025010074000,Dragnäs,66.628936,19.629827,1,,
9021025010075000,Purkijaur,66.636459,19.541157,1,,
9021025010076000,Purkijaur Hpl Holmen,66.633249,19.532281,1,,
9021025010078000,Berghem,66.644385,18.796017,1,,
9021025010080000,Karats,66.692351,18.805428,1,,
9021025010083000,Forshällan,66.634277,19.574983,1,,
9021025010084000,Årrenjarka,66.886499,18.022052,1,,
9021025010087000,Tårrajaur väg 45,66.431013,19.686189,1,,
9021025010095000,Kåbdalis Affären,66.146198,19.990427,1,,
9021025010388000,Vajkijaur vsk väg 45,66.659515,19.825598,1,,
9021025010411000,Mattisudden Växthuset väg 97,66.572903,19.961381,1,,
9021025010447000,"Bodan E4, Skellefteå",64.412619,21.293633,1,,
9021025010720000,Porjus Strömgatan,66.951870,19.795738,1,,
9021025010743000,Jokkmokk Lappstavägen,66.603774,19.847827,1,,
9021025013000000,Överkalix Tallvik,66.334392,22.842973,1,,
9021025013001000,Överkalix Busstation,66.326249,22.837095,1,,
9021025013002000,Tallvik Furuvägen,66.338997,22.849340,1,,
9021025013003000,Lansån Byn,66.491457,22.480250,1,,
9021025013004000,Norra Tallvik,66.342364,22.829375,1,,
9021025013005000,Nybyn väg 98,66.366600,22.848881,1,,
9021025013006000,Ö Rödupp Färjevsk,66.488314,22.779230,1,,
9021025013008000,Östra Lillselet,66.571478,22.759601,1,,
9021025013009000,Ö Ansvar vsk Pajala,66.609431,22.758587,1,,
9021025013011000,Jockfall,66.655114,22.715497,1,,
9021025013012000,Överkalix Skola,66.327845,22.836893,1,,
9021025013013000,Grelsbyn,66.315260,22.837909,1,,
9021025013016000,Pojmis,66.353130,23.009786,1,,
9021025013019000,Lomträsk Ökx,66.450817,22.950434,1,,
9021025013022000,Östra Stråkan,66.440147,22.789090,1,,
9021025013023000,Nybyn väg 392,66.370630,22.842919,1,,
9021025013024000,"Vännäsberget, Eliasvägen",66.373161,22.761837,1,,
9021025013025000,Boheden,66.305567,22.921006,1,,
9021025013026000,Hultet,66.292480,22.924882,1,,
9021025013027000,"Vännäsberget, vsk Avavägen",66.386180,22.740181,1,,
9021025013028000,"Vännäsberget, vsk Bergstadiusvägen",66.374939,22.758356,1,,
9021025013029000,"Vännäsberget, trähusfabriken",66.379183,22.747113,1,,
9021025013030000,Furunäs,66.353544,22.799205,1,,
9021025013031000,Vännäsberget vsk Kalix älv,66.375935,22.756836,1,,
9021025013032000,Vännäsberget vsk Kallvägen,66.376811,22.754384,1,,
9021025013033000,Västra Stråkan,66.426805,22.778910,1,,
9021025013034000,V Rödupp,66.464812,22.766459,1,,
9021025013035000,Storbäcken,66.503247,22.755854,1,,
9021025013037000,Vallsjärv,66.638566,22.628450,1,,
9021025013038000,Svartbyn Vsk Luppio,66.259125,22.834704,1,,
9021025013039000,Svedjan E10,66.360671,22.741071,1,,
9021025013040000,Hedensbyn E10,66.339048,22.792279,1,,
9021025013041000,Gyljen G:a Skolan E10,66.376995,22.702606,1,,
9021025013042000,Gyljen E10,66.374573,22.713887,1,,
9021025013043000,Tvärån E10,66.434674,22.597129,1,,
9021025013044000,Gyljeheden E10,66.364836,22.730551,1,,
9021025013045000,Landet E10,66.353538,22.769304,1,,
9021025013046000,Yttre Lansjärv E10,66.596814,22.262889,1,,
9021025013047000,Svartbyn G:a Affären,66.265944,22.835585,1,,
9021025013049000,Lansjärv Folkets Hus,66.658310,22.174433,1,,
9021025013050000,Svartbyn Tjulobäcken,66.272903,22.835387,1,,
9021025013051000,Lansån E10,66.494919,22.467777,1,,
9021025013052000,Naisheden E10,66.543326,22.359436,1,,
9021025013053000,Krokfors E10,66.528993,22.423495,1,,
9021025013054000,Tansjärv,66.285645,22.711808,1,,
9021025013055000,S Sandsjärv,66.340895,22.708644,1,,
9021025013056000,Bönnäset,66.326151,22.560433,1,,
9021025013057000,Svartbyn Traktormuseum,66.281310,22.834050,1,,
9021025013058000,Svartbyn Ga Posten,66.261941,22.834620,1,,
9021025013059000,Räktforsen E10,66.168829,22.807136,1,,
9021025013060000,Lombheden,66.234212,22.944324,1,,
9021025013061000,Mjöträsk,66.173473,22.934092,1,,
9021025013065000,"Vännäsberget, ridcentra",66.368763,22.767440,1,,
9021025013068000,Sandudden,66.305935,22.896506,1,,
9021025013070000,"Västra Svartbyn, Nilles",66.257930,22.820146,1,,
9021025013072000,Östra Lomträsk,66.459114,22.950180,1,,
9021025013073000,Allsån,66.388192,22.934089,1,,
9021025013074000,Flakaberg,66.517228,21.906655,1,,
9021025013075000,Västra Lillselet,66.564063,22.749232,1,,
9021025013076000,Naisjärv,66.514864,22.315748,1,,
9021025013077000,Hällan,66.334093,22.815165,1,,
9021025013079000,Kangis,66.320800,22.815320,1,,
9021025013080000,Norra Sandsjärv,66.382170,22.663299,1,,
9021025013081000,Mellersta Sandsjärv,66.359406,22.692004,1,,
9021025013083000,Kölmjärv,66.377184,22.303425,1,,
9021025013084000,Orasjärvi,66.499360,22.488197,1,,
9021025013085000,Lillsund,66.625369,22.243984,1,,
9021025013086000,Bredträsk,66.304416,22.417952,1,,
9021025013087000,Kesasjärv,66.293869,22.350088,1,,
9021025013088000,Nybyn Byavägen,66.367718,22.843918,1,,
9021025013089000,Talljärv,66.277120,22.234800,1,,
9021025013090000,Tallån,66.232224,22.223123,1,,
9021025013092000,Granträsk/ökx,66.241445,22.319176,1,,
9021025013102000,Byträsk,66.242274,22.844494,1,,
9021025013814000,Talljärv Vsk E10,66.334328,22.801593,1,,
9021025013818000,Lansjärv E10 Norra Infarten,66.658341,22.174350,1,,
9021025013826000,Notträsk,66.325636,22.730868,1,,
9021025014001000,Kalix Busstation,65.854356,23.142159,1,,
9021025014002000,Kalix Furuhedsskolan,65.856044,23.170016,1,,
9021025014003000,Kalix Folkhögskola,65.842736,23.177235,1,,
9021025014004000,Kalix Manhemskolan,65.853125,23.159487,1,,
9021025014006000,Åkroken E4 Ljussignal,65.883930,22.962742,1,,
9021025014007000,Rian Norra,65.887482,22.965237,1,,
9021025014009000,Månsbyn E4,65.875437,23.010665,1,,
9021025014010000,Stråkanäs Västra E4,65.870224,23.060568,1,,
9021025014011000,Järnvägsgatan vsk Dalvägen,65.870844,23.113710,1,,
9021025014012000,Gammelgården Skolan,65.881277,23.043298,1,,
9021025014013000,Rian,65.885120,22.984257,1,,
9021025014014000,Börjelsbyn Norra byn,65.904839,22.930469,1,,
9021025014015000,Bondersbyn Väg 744,65.927239,22.899090,1,,
9021025014016000,Marieberg,65.953038,22.887803,1,,
9021025014017000,Kamlunge Väg 744,66.002694,22.855215,1,,
9021025014019000,Morjärv Smedjan,66.067177,22.705577,1,,
9021025014020000,Björkfors G:A Skolan,65.924711,23.460610,1,,
9021025014021000,Västanäs E10,66.111620,22.707078,1,,
9021025014022000,Lilltjärnlandet,66.076494,23.211675,1,,
9021025014023000,Grubbnäsudden,66.073005,23.260855,1,,
9021025014024000,Sänkmyran Byn,65.911709,23.366295,1,,
9021025014026000,Björkfors Fd affär,65.920480,23.460244,1,,
9021025014027000,Hällfors Kalix,65.949207,23.454997,1,,
9021025014028000,Granån Byn,65.920269,23.397942,1,,
9021025014029000,Storträsk,66.089493,23.226373,1,,
9021025014031000,Kälsjärv,65.926547,23.164169,1,,
9021025014032000,Korpikå,65.993087,23.152394,1,,
9021025014034000,"Rian, Fd verkstad",65.883077,23.004290,1,,
9021025014035000,Vitvattnet,66.059410,23.196401,1,,
9021025014037000,Bodträsk,66.046316,23.292724,1,,
9021025014038000,Gammelgården,65.881796,23.032932,1,,
9021025014041000,Holmträsk Kalix,65.887026,23.282854,1,,
9021025014042000,Björknäs Ridskolan,65.881072,23.073611,1,,
9021025014043000,Lantjärv,65.857600,23.333920,1,,
9021025014044000,Månsbyn Östra E4,65.870728,23.027137,1,,
9021025014045000,Bredviken,65.825368,23.215700,1,,
9021025014046000,Stora vägen/Jannev,65.809872,23.243865,1,,
9021025014048000,Stråkanäs Östra E4,65.866731,23.072772,1,,
9021025014049000,Vånafjärden E4,65.825039,23.311958,1,,
9021025014050000,Båtskärsnäs E4,65.832369,23.426109,1,,
9021025014052000,Holmträsk Vsk,65.880387,23.290610,1,,
9021025014053000,Båtskärsnäs,65.781571,23.428434,1,,
9021025014055000,Näsby skola,65.841034,23.184822,1,,
9021025014056000,Rian Södra,65.883081,22.998847,1,,
9021025014057000,Centrumvägen/Jägarbov,65.842942,23.188256,1,,
9021025014058000,Innanbäcken Skolan,65.852731,23.101048,1,,
9021025014060000,Grytnäs,65.847588,23.130444,1,,
9021025014061000,Ryssgraven,65.856103,23.146712,1,,
9021025014063000,Vallen,65.826770,23.174332,1,,
9021025014064000,Allévägen Tele24,65.840625,23.152968,1,,
9021025014066000,Nyborg,65.787762,23.174832,1,,
9021025014067000,Storön vägskäl Kajen,65.739615,23.097832,1,,
9021025014068000,Rammelberget,65.857982,23.155069,1,,
9021025014070000,Storön,65.729946,23.087181,1,,
9021025014071000,Näsbyvägen/Vassenv,65.845596,23.174405,1,,
9021025014072000,Ryssbält,65.771723,23.016335,1,,
9021025014073000,Sangis E4 Ljussignal,65.855579,23.495861,1,,
9021025014075000,Innanbäcken,65.853843,23.100793,1,,
9021025014076000,Bruksgatan/Kappelgränd,65.797009,23.289356,1,,
9021025014077000,Vikmanholmen,65.807914,23.282186,1,,
9021025014078000,Stora vägen/Hamnvägen,65.809016,23.251795,1,,
9021025014079000,Ökvattnet,65.903612,22.803718,1,,
9021025014080000,Pålänge,65.813427,22.893250,1,,
9021025014081000,Sören,65.871247,22.752399,1,,
9021025014082000,Stora vägen/Tvärvägen,65.812407,23.242183,1,,
9021025014083000,Stora vägen/Strandv,65.815168,23.242720,1,,
9021025014084000,Bredviksvägen/Nybacksv,65.828397,23.211099,1,,
9021025014085000,Bredviksv/Återvinningscent,65.831482,23.205501,1,,
9021025014086000,Kalix Centrumskolan,65.862668,23.143531,1,,
9021025014087000,Sangis Östra E4,65.858642,23.513817,1,,
9021025014088000,Bredviken E4,65.833235,23.216195,1,,
9021025014089000,Rolfs E4,65.853838,23.112021,1,,
9021025014090000,Kosjärv E4,65.917815,22.759296,1,,
9021025014092000,Töre Busstation,65.912916,22.645762,1,,
9021025014093000,Sören E4,65.909566,22.672848,1,,
9021025014100000,Centralvägen/Affären,65.792097,23.180845,1,,
9021025014101000,Målsövägen/Movägen,65.777689,23.184872,1,,
9021025014102000,Börjelsbyn Missionshuset,65.898872,22.936632,1,,
9021025014103000,Sjukhuset/Centrumv,65.853497,23.154573,1,,
9021025014104000,Sjukhuset,65.854970,23.158806,1,,
9021025014105000,Kalix Busstation Tät,65.854356,23.142159,1,,
9021025014106000,Jägarbovägen,65.842942,23.188256,1,,
9021025014107000,Grytnäs Hälsocentral Tät,65.847439,23.123973,1,,
9021025014109000,Storövägen/Målsöv,65.783922,23.172192,1,,
9021025014110000,Johannisbergsv/SIS Ungdomshem,65.840745,23.148424,1,,
9021025014111000,Allev Tele24 LTN,65.840625,23.152968,1,,
9021025014112000,Bredviksvägen/Mellanv,65.825368,23.215700,1,,
9021025014113000,Karlsborgsvägen/Vånafj,65.823437,23.314084,1,,
9021025014114000,Karlsborg LTN,65.804797,23.296247,1,,
9021025014115000,Risön Jannev LTN,65.809974,23.243807,1,,
9021025014116000,Näsby Skola LTN,65.841034,23.184822,1,,
9021025014117000,Kalix Friskola,65.842736,23.177235,1,,
9021025014118000,Innanbäcken E4,65.859331,23.096523,1,,
9021025014119000,Vånafjärden LTN,65.823437,23.314084,1,,
9021025014121000,Vånafjärden Byn,65.824031,23.315205,1,,
9021025014125000,Rudträskbacken,65.874864,23.140797,1,,
9021025014126000,Stenbäcksvägen/Dalv,65.871174,23.115280,1,,
9021025014127000,Torggatan/Torggården,65.856598,23.133421,1,,
9021025014128000,Gyssvägen/Rönnv,65.780786,23.203746,1,,
9021025014129000,Norra Parkgatan,65.856883,23.136872,1,,
9021025014130000,Golfbanan,65.841169,23.153476,1,,
9021025014131000,Djuptjärn Skolan Via Centrumv,65.872172,23.131144,1,,
9021025014132000,Svedjevägen/Rolfsv,65.851485,23.105228,1,,
9021025014133000,Pålängevägen/Frängsmyrv,65.849028,23.112848,1,,
9021025014134000,Flygfältsvägen/Hedgårdsv,65.850036,23.169497,1,,
9021025014135000,Vallen/Nyborgsvägen,65.831608,23.164548,1,,
9021025014136000,Nyborgsvägen/Holmenv,65.804635,23.159705,1,,
9021025014137000,Gyssvägen/Marahamnsv,65.776566,23.194450,1,,
9021025014138000,Slussvägen/Kvarnvägen,65.785723,23.200689,1,,
9021025014139000,Centralvägen/Medängsv,65.788601,23.191195,1,,
9021025014140000,Centralvägen/Vestmansv,65.790157,23.188129,1,,
9021025014141000,Centrumvägen/ICA Näsbyn,65.847656,23.173017,1,,
9021025014142000,Karlsborgsvägen/Åsvägen,65.808998,23.303983,1,,
9021025014143000,Karlsborgsvägen/Dalvägen,65.804642,23.295718,1,,
9021025014144000,Bruksgatan/Folketshusv,65.797008,23.289378,1,,
9021025014145000,Kalixv/Lillnorgrensbacke,65.799665,23.286879,1,,
9021025014146000,Bredviksvägen/Lotsv,65.826680,23.212824,1,,
9021025014147000,Frevisören,65.755757,23.402382,1,,
9021025014148000,Djuptjärn Skolan LTN,65.872172,23.131144,1,,
9021025014149000,Hedvägen,65.846283,23.135463,1,,
9021025014150000,Mjölafors E10,66.121471,22.705231,1,,
9021025014176000,Båtskärsnäs Torget,65.781571,23.428434,1,,
9021025014177000,Pålängev/Vikenvägen,65.849082,23.112842,1,,
9021025014178000,Kalix Station,65.866334,23.140992,1,,
9021025014803000,Manhemskolan,65.853151,23.159516,1,,
9021025014804000,Kalix Stenbäcken,65.867537,23.126643,1,,
9021025014808000,Djuptjärn Skolan,65.872172,23.131144,1,,
9021025014809000,Älvkyrkogården,65.859751,23.132541,1,,
9021025014810000,Nyborg Affären,65.792097,23.180845,1,,
9021025014811000,Ytterbyvägen/Smedbacksv,65.793414,23.173952,1,,
9021025014812000,Ytterbyn Skolan,65.795398,23.167799,1,,
9021025014813000,Ytterbyvägen/Lievägen,65.796816,23.164954,1,,
9021025014814000,Ytterbyvägen/Nygårdsv,65.799654,23.161836,1,,
9021025014816000,Vallen/Sandviksvägen,65.822217,23.175244,1,,
9021025014817000,Vallen/Älvvägen,65.830067,23.171233,1,,
9021025014819000,SIS Ungdomshem,65.840900,23.148205,1,,
9021025014820000,Johannisbergsv/Verkstadsv,65.843343,23.144460,1,,
9021025014821000,Johannisbergsv/Bäckvägen,65.844912,23.139231,1,,
9021025014822000,Johannisbergsv/Hedv,65.846306,23.135558,1,,
9021025014830000,Flygfältsvägen/ICA Näsbyn,65.847650,23.174072,1,,
9021025014831000,Lägergatan/Soldatv,65.848606,23.178926,1,,
9021025014832000,Åkervägen/Aspstigen,65.843238,23.179911,1,,
9021025014833000,Åkervägen/Näsbygården,65.843338,23.185288,1,,
9021025014834000,Jägarbovägen/Videv,65.843341,23.189141,1,,
9021025014835000,Flygfältsvägen/Jägarbov,65.845534,23.192086,1,,
9021025014836000,Flygfältsvägen/Majorsv,65.846668,23.183387,1,,
9021025014837000,Lägergatan/Idrottsv,65.849967,23.177822,1,,
9021025014838000,Egnahemsvägen/Hedgårdsv,65.851999,23.174224,1,,
9021025014840000,Egnahemsv/Skogsgränd,65.853193,23.164439,1,,
9021025014842000,Egnahemsvägen/Garvareg,65.852846,23.166959,1,,
9021025014843000,Egnahemsvägen/Skogsgr,65.853738,23.162658,1,,
9021025014845000,Kalix Sjukhus/Centrumv,65.853300,23.155288,1,,
9021025014846000,Kv Blocket,65.857590,23.160771,1,,
9021025014847000,Rammelbergstorg,65.857430,23.151365,1,,
9021025014848000,Kalix Sjukhus,65.854970,23.158806,1,,
9021025014850000,Lappkullv/Gammelängsv,65.853897,23.100786,1,,
9021025014851000,Pålängevägen/Lappkullv,65.850824,23.097356,1,,
9021025014853000,Svedjevägen/Stabsv,65.853992,23.107661,1,,
9021025014854000,Vikenvägen/Rolfsv,65.851487,23.113088,1,,
9021025014855000,Stenbäcksv/Kamomillst,65.871261,23.136788,1,,
9021025014856000,Stenbäcksvägen/Blåbärsst,65.872786,23.136939,1,,
9021025014857000,Stenbäcksvägen/Lingonst,65.874620,23.138567,1,,
9021025014859000,Harstigen,65.879929,23.130922,1,,
9021025014860000,Djurgårdsvägen/Björnst,65.876540,23.127504,1,,
9021025014861000,Djurgårdsvägen/Ekorrst,65.875596,23.124236,1,,
9021025014862000,Stenbäcksvägen/Kvarnv,65.868050,23.126658,1,,
9021025014863000,Stenbäcksvägen/Gjutarv,65.867830,23.122034,1,,
9021025014864000,Stenbäcksvägen/Hamptjärnsv,65.869283,23.118066,1,,
9021025014867000,Morjärvsvägen/Vassholmsv,65.866552,23.123871,1,,
9021025014868000,Morjärvsvägen/Ängsbackast,65.864247,23.126802,1,,
9021025014869000,Morjärvsvägen/Älvdalsv,65.862774,23.128737,1,,
9021025014870000,Morjärvsvägen/Centralg,65.857718,23.134689,1,,
9021025014872000,Hamnvägen/Fabriken,65.796502,23.284440,1,,
9021025014873000,Bredviksvägen/N Infarten,65.834731,23.201181,1,,
9021025014880000,Folkets Hus,65.856150,23.144809,1,,
9021025018002000,Övertorneå Busstation,66.390206,23.657504,1,,
9021025018003000,Kulmunki Byn,66.907405,23.311507,1,,
9021025018005000,Hedenäset vsk Kalix,66.238444,23.682353,1,,
9021025018006000,Hedenäset Norra,66.241697,23.680688,1,,
9021025018007000,Lövdalen Vsk,66.266362,23.651479,1,,
9021025018008000,Ruskola södra infart,66.342568,23.647600,1,,
9021025018009000,Ruskola Väg 99,66.381193,23.646024,1,,
9021025018010000,Ruskola väg 99,66.363099,23.649758,1,,
9021025018011000,Alkullen V99,66.335618,23.642094,1,,
9021025018012000,Luppio Väg 99,66.270333,23.652364,1,,
9021025018013000,Hedenäset Gamla Affären,66.234254,23.681172,1,,
9021025018014000,Luppio Norra,66.277954,23.652286,1,,
9021025018015000,Bäckesta väg 99,66.190810,23.712947,1,,
9021025018016000,Risudden Byn väg 99,66.179467,23.787230,1,,
9021025018017000,Potila Väg 99,66.162969,23.855432,1,,
9021025018018000,Niemis,66.289329,23.642803,1,,
9021025018019000,Armasjärvi Vsk väg 99,66.294128,23.639103,1,,
9021025018021000,Armasjärvi,66.308016,23.562711,1,,
9021025018023000,Ekfors,66.305252,23.431817,1,,
9021025018024000,Liehittäjä,66.261153,23.415181,1,,
9021025018030000,Haapakylä,66.399832,23.613431,1,,
9021025018031000,Kuittasjärvi,66.710815,23.811926,1,,
9021025018032000,Ö Kuivakangas,66.451862,23.625582,1,,
9021025018034000,Matojärvi,66.116523,23.743311,1,,
9021025018055000,Södra Pallakka,66.154786,23.486601,1,,
9021025018056000,Koutojärvi Väg 398,66.106449,23.489746,1,,
9021025018057000,Lampisenpää,66.596364,23.857609,1,,
9021025018058000,Hedenäset G:A Affären Röd Kur,66.234254,23.681172,1,,
9021025018061000,Rantajärvi Norra,66.700263,23.690050,1,,
9021025018062000,Suokolojärvi,66.489356,23.590240,1,,
9021025018063000,Siekasjärvi,66.565769,23.424669,1,,
9021025018064000,Ylinenjärvi,66.624124,23.463217,1,,
9021025018065000,Rantajärvi Byn,66.700145,23.701706,1,,
9021025018067000,Aapua,66.859550,23.520050,1,,
9021025018070000,N Kuivakangas Skolan,66.427269,23.622719,1,,
9021025018071000,Korva Norra Väg 99,66.469777,23.668667,1,,
9021025018072000,Niskanpää Väg 99,66.532668,23.781164,1,,
9021025018073000,Juoksengi Handlarn,66.568070,23.849721,1,,
9021025018074000,Svanstein Skolan,66.651643,23.858724,1,,
9021025018075000,Valkeakoski väg 99,66.752938,23.870602,1,,
9021025018076000,Neistenkangas väg 99,66.803049,23.901485,1,,
9021025018077000,Pello Pellohallen,66.801875,23.976116,1,,
9021025018079000,Pello N Strandvägen,66.828796,23.973306,1,,
9021025018080000,Pello Hannuvägen,66.824868,23.977996,1,,
9021025018081000,Pello Ekmansvägen,66.805452,23.981116,1,,
9021025018082000,Pello Hpl G:k´s,66.803672,23.980451,1,,
9021025018083000,Pantzares Handelsträdgård,66.798528,23.934994,1,,
9021025018084000,Väg 99 vsk Pentäsjokivägen,66.799620,23.896181,1,,
9021025018085000,Lampsisuanto Norra,66.791912,23.894727,1,,
9021025018086000,Lampsisuanto Södra,66.783467,23.892504,1,,
9021025018087000,Hpl Väg 99 vsk Kuiattasjärvi,66.696790,23.843007,1,,
9021025018088000,Svanstein Norra Väg 99,66.665104,23.844690,1,,
9021025018089000,Svanstein vsk Aapua Väg 99,66.660766,23.850921,1,,
9021025018090000,Svanstein Dränglängan Väg 857,66.660288,23.849512,1,,
9021025018091000,Svanstein Byn Norra,66.656618,23.854867,1,,
9021025018092000,Svanstein Byn,66.648374,23.860657,1,,
9021025018093000,Svanstein Byn Södra,66.643247,23.862732,1,,
9021025018094000,Hepokangas,66.583675,23.857871,1,,
9021025018095000,Juoksengi Hpl Tallvägen,66.573214,23.855185,1,,
9021025018096000,Juoksengi vsk Vyönivägen,66.564041,23.843125,1,,
9021025018097000,Polcirkelns Åkeri Väg 99,66.558179,23.829158,1,,
9021025018098000,Vanhaniemi Väg 99,66.512665,23.734856,1,,
9021025018099000,Korva vsk Soukolojoki väg 99,66.465216,23.648369,1,,
9021025018100000,Korva Södra Väg 99,66.461001,23.634780,1,,
9021025018101000,Väg 99 vsk Överkalix,66.397581,23.624613,1,,
9021025018102000,Övertorneå Kommunförrådet,66.393835,23.635009,1,,
9021025018103000,Övertorneå Campingen,66.394023,23.642362,1,,
9021025018104000,Övertorneå Folkets Hus,66.382816,23.649640,1,,
9021025018105000,Alkullen Hpl väg 99,66.335565,23.642055,1,,
9021025018106000,Väg 99 vsk G:a Vägen,66.249249,23.669763,1,,
9021025018107000,Hpl väg 99 vsk Norlinsv,66.232655,23.681543,1,,
9021025018111000,Hpl väg 99 vsk Kyrkvägen,66.215916,23.696660,1,,
9021025018112000,Bäckesta Norra,66.198724,23.711057,1,,
9021025018113000,Bäckesta Byn,66.194783,23.711516,1,,
9021025018114000,Bäckesta Södra,66.190718,23.712985,1,,
9021025018116000,Risudden Södra,66.175824,23.796901,1,,
9021025018117000,Matkakoski Norra,66.140903,23.899463,1,,
9021025018118000,Ruskola Byn,66.373241,23.653714,1,,
9021025018119000,Mettäjärvi Väg 857,66.726844,23.593678,1,,
9021025018805000,Övertorneå Skola,66.387176,23.645858,1,,
9021025018807000,Övertorneå Vårdcentral,66.389351,23.652462,1,,
9021025018814000,Kuivakangas väg 99,66.455665,23.625876,1,,
9021025018815000,Siekasjärvi väg 99,66.457741,23.627839,1,,
9021025018816000,V Kuivakangas,66.418612,23.596383,1,,
9021025018852000,Vuomajärvi,66.155370,23.647452,1,,
9021025018854000,Persomajärvi,66.181711,23.378909,1,,
9021025020090000,"Spisen E4, Skellefteå",64.851169,20.995041,1,,
9021025020311000,"Lillåbron E4, Robertsfors",63.996296,20.779076,1,,
9021025020385000,"Istermyrliden E4, Skellefteå",64.563750,21.231979,1,,
9021025020542000,"Västanbyn, Skellefteå",64.333788,21.239245,1,,
9021025020620000,"Fällbäcken E4, Skellefteå",64.782699,21.018512,1,,
9021025021000000,Junosuando skola,67.425008,22.505301,1,,
9021025021001000,Pajala Busstation,67.210854,23.365724,1,,
9021025021002000,Pajala Skola Rian,67.211844,23.356054,1,,
9021025021009000,Kenttä väg 395,67.425017,22.533768,1,,
9021025021010000,Kengis väg 99,67.188957,23.477040,1,,
9021025021011000,Kassa väg 99,67.056134,23.676378,1,,
9021025021012000,Torinen väg 99,67.030580,23.716044,1,,
9021025021013000,Kardis väg 99,66.989438,23.782302,1,,
9021025021014000,Jarhois väg 99,66.952376,23.845368,1,,
9021025021015000,Tärendö Kyrkbacken väg 394,67.157436,22.630913,1,,
9021025021018000,Tärendö Macken,67.173357,22.634321,1,,
9021025021019000,Pajala Älvbrinken,67.225981,23.336602,1,,
9021025021021000,Pajala Rova,67.222245,23.377003,1,,
9021025021022000,Sattajärvi Hembygdsgård,67.090818,23.357640,1,,
9021025021023000,Sattajärvi Vsk Keros läder,67.088218,23.354256,1,,
9021025021025000,Sattajärvi Skolan väg 392,67.071852,23.347839,1,,
9021025021026000,Saittarova,67.341037,22.227945,1,,
9021025021027000,Mertapalo,67.201485,23.403938,1,,
9021025021030000,Sattajärvi Skolan,67.070055,23.347115,1,,
9021025021031000,Pimpiö,66.977790,23.254915,1,,
9021025021032000,Kuusilaki Vsk,66.968675,23.237397,1,,
9021025021033000,Sattajärvi affär,67.066155,23.346983,1,,
9021025021034000,Södra Sattajärvi,67.060944,23.345586,1,,
9021025021036000,Tärendö,67.173366,22.634324,1,,
9021025021037000,Männikö,67.249718,22.298053,1,,
9021025021040000,Erkheikki väg 395,67.252334,23.194121,1,,
9021025021041000,Peräjävaara Byn,67.258915,22.967334,1,,
9021025021043000,Tärendö Skolan,67.169386,22.621824,1,,
9021025021045000,Saarisuvanto P-plats,67.078681,22.535560,1,,
9021025021046000,Kompelusvaara Väg 394,67.063903,22.251360,1,,
9021025021048000,Anttis Väg 395 Ljussignal,67.253246,22.798639,1,,
9021025021049000,Nytorp,67.044018,22.094173,1,,
9021025021050000,Kainulasjärvi,67.004763,22.490418,1,,
9021025021052000,Narken,66.938719,22.731857,1,,
9021025021060000,Pajala Hälsocentral,67.222897,23.343058,1,,
9021025021061000,Autio Väg 395,67.248550,23.257282,1,,
9021025021063000,Kaunisvaara,67.379884,23.340832,1,,
9021025021064000,Aareavaara,67.441943,23.482234,1,,
9021025021066000,Kihlangi,67.565960,23.456873,1,,
9021025021068000,Kaarnevaara,67.623930,23.494995,1,,
9021025021073000,Kitkiöjärvi,67.811410,23.129680,1,,
9021025021076000,Merasjärvi Hpl Vsk 99,67.921778,23.263979,1,,
9021025021077000,Muodoslompolo,67.945176,23.423550,1,,
9021025021088000,Autio Byn,67.251628,23.248733,1,,
9021025021107000,Kätkesuando,68.119775,23.301328,1,,
9021025021108000,Lovikka Södra väg 395,67.330139,22.582964,1,,
9021025021113000,Kangosfors,67.480980,22.655821,1,,
9021025021117000,Junosuando Busstation,67.428996,22.507529,1,,
9021025021118000,Lovikka Norra väg 395,67.338600,22.592332,1,,
9021025021119000,Anttis Affär,67.255968,22.767270,1,,
9021025021125000,Nuoksujärvi,66.961533,22.944026,1,,
9021025021126000,Jierijärvi,66.943051,23.019681,1,,
9021025021127000,Jierijärvi Vsk,66.935431,22.983071,1,,
9021025021128000,Lahdenpää,66.913137,23.021397,1,,
9021025021130000,Korpilombolo Busstation,66.849857,23.058533,1,,
9021025021135000,Ohtanajärvi Vsk V392,66.918176,23.146969,1,,
9021025021140000,Teurajärvi Bensinstation,66.786555,22.914731,1,,
9021025021142000,Markusvinsa,66.727005,22.893537,1,,
9021025021143000,Limingojärvi,66.690053,22.898541,1,,
9021025021201000,Erkheikki Byn,67.246588,23.183215,1,,
9021025023000000,Hakkas skola,66.914956,21.572836,1,,
9021025023001000,Gällivare Centrum,67.132663,20.664626,1,,
9021025023002000,Malmberget Busstation,67.175712,20.657244,1,,
9021025023004000,Gällivare Resecentrum,67.133843,20.651529,1,,
9021025023005000,Gällivare Domus,67.132646,20.661642,1,,
9021025023006000,Gällivare Sjukhus,67.131667,20.685454,1,,
9021025023007000,Gällivare Sameskolan,67.140129,20.694771,1,,
9021025023008000,Ripats Nattavaaravägen,66.968762,20.752424,1,,
9021025023009000,Tjautjasjaure Tät,67.331909,20.745909,1,,
9021025023010000,Ritsemvägskäl väg 45,67.015938,19.856493,1,,
9021025023012000,Nilivaara Kiosken,67.226153,21.595954,1,,
9021025023021000,Sakajärvi Byn,67.089409,20.986525,1,,
9021025023022000,Liikavaara Byn,67.081226,21.057300,1,,
9021025023023000,Leipojärvi G:A Ica,67.050449,21.219595,1,,
9021025023024000,Mettä-dokkas,67.065397,21.275353,1,,
9021025023025000,Dokkas Väg 394,67.069972,21.321295,1,,
9021025023026000,Purnuvaara,67.109003,21.345967,1,,
9021025023027000,Markitta,67.173891,21.575519,1,,
9021025023028000,Sakajärvi E10,67.096152,20.972990,1,,
9021025023029000,Ullatti OK/Q8,67.015333,21.813985,1,,
9021025023030000,Malmbergsvägen 7/10,67.136420,20.656068,1,,
9021025023032000,Muorjevaara E10,67.195812,20.979143,1,,
9021025023033000,Moskojärvi E10,67.367883,21.091762,1,,
9021025023034000,Skaulo E10,67.413759,21.112784,1,,
9021025023035000,Puoltikasvaara E10,67.441068,21.116190,1,,
9021025023037000,Gällivare Hedskolan,67.141794,20.662628,1,,
9021025023038000,Puoltikasvaara Bageriet,67.441090,21.116335,1,,
9021025023040000,Satter vägskäl,66.893228,21.927096,1,,
9021025023042000,Sjöparksskolan,67.137011,20.666472,1,,
9021025023045000,Ampiaislantto,67.035637,21.388708,1,,
9021025023046000,Alavaara,67.049321,21.358398,1,,
9021025023047000,Sarvisvaara,66.755886,21.450115,1,,
9021025023048000,Palohuornas,66.923741,21.409760,1,,
9021025023049000,Nattavaara järnvägsstation,66.754688,20.948048,1,,
9021025023050000,Purnu,66.887242,21.294395,1,,
9021025023051000,Hakkas Ica,66.918182,21.553927,1,,
9021025023052000,Gällivare Sjötorpsgatan,67.133520,20.676608,1,,
9021025023054000,Tallbackaskolan,67.160632,20.637551,1,,
9021025023055000,Mettä-Dokkas väg 394,67.065800,21.289004,1,,
9021025023056000,Nilivaara Plåt,67.228991,21.586675,1,,
9021025023058000,Mellanområdet,67.157996,20.632581,1,,
9021025023060000,Nattavaara Station,66.753707,20.947797,1,,
9021025023061000,Nattavaara by,66.763052,21.028601,1,,
9021025023062000,Kilvo,66.845539,21.010224,1,,
9021025023064000,Tidnokenttä,66.925044,20.929950,1,,
9021025023065000,Hakkas Byn,66.915114,21.562327,1,,
9021025023067000,Nattavaara Vsk E10,66.937304,21.451908,1,,
9021025023068000,Badhusparkeringen,67.137204,20.666627,1,,
9021025023069000,Lasarettsg 57,67.134251,20.687086,1,,
9021025023070000,Nilivaara Konsum,67.224273,21.612546,1,,
9021025023071000,Källgatan,67.133180,20.681831,1,,
9021025023072000,Lasarettsgatan 27,67.133029,20.669714,1,,
9021025023073000,SJ,67.133570,20.651937,1,,
9021025023074000,Hermelinvägen,67.137561,20.655489,1,,
9021025023075000,Söderbergsvägen,67.141848,20.661136,1,,
9021025023076000,Vinbärsvägen,67.144272,20.665369,1,,
9021025023077000,Energiplan,67.156434,20.655052,1,,
9021025023078000,Vinterv/Mellanv,67.157144,20.620289,1,,
9021025023079000,Mosebackev/Laxv,67.164386,20.625762,1,,
9021025023080000,Mosebackev/Daggv,67.164964,20.640548,1,,
9021025023081000,Suobbat,66.452910,21.857447,1,,
9021025023086000,Järnvägsgatan 23,67.174493,20.647044,1,,
9021025023087000,Gällivarevägen 10,67.173524,20.655275,1,,
9021025023088000,KosMyr,67.187725,20.746896,1,,
9021025023089000,Bergmansgatan 50,67.169380,20.682747,1,,
9021025023090000,Lasarettsgatan 65,67.134260,20.687088,1,,
9021025023091000,Hakkas,66.914695,21.563214,1,,
9021025023098000,Killinge,67.515225,20.265162,1,,
9021025023101000,Hedskolan,67.141718,20.668369,1,,
9021025023102000,Kääntöjärvi,67.383107,21.825744,1,,
9021025023103000,Vettasjärvi,67.374195,21.678420,1,,
9021025023104000,Harrå,67.406179,20.099097,1,,
9021025023106000,Allavaara,67.260441,20.126389,1,,
9021025023107000,Lina älv,67.253664,20.242216,1,,
9021025023108000,Latnivaara,67.255323,20.272426,1,,
9021025023115000,Yrttivaara,66.903753,21.759282,1,,
9021025023123000,Repisvaara,67.111193,20.664741,1,,
9021025023126000,Sjöparken,67.137011,20.666472,1,,
9021025023132000,Resecentrum Tät,67.133843,20.651529,1,,
9021025023142000,Malmberget Gällivarevägen,67.173513,20.655065,1,,
9021025023143000,Malmberget Kyrkan,67.172136,20.648006,1,,
9021025023144000,Vintergatan,67.171888,20.630967,1,,
9021025023145000,Laxvägen,67.164370,20.625713,1,,
9021025023146000,Kronsågen södra väg 45,66.972943,19.837982,1,,
9021025023147000,Mosebacke,67.164892,20.640557,1,,
9021025023148000,Mellanvägen Östra,67.159123,20.652354,1,,
9021025023149000,Tallbacka,67.158085,20.634681,1,,
9021025023150000,Mellanvägen Västra,67.157001,20.623569,1,,
9021025023151000,Transportvägen,67.150890,20.631251,1,,
9021025023152000,Cellulosavägen,67.145879,20.648283,1,,
9021025023153000,Malmheden,67.148088,20.660797,1,,
9021025023154000,Vinbärsvägen,67.143725,20.665051,1,,
9021025023155000,Söderbergsvägen,67.141851,20.661344,1,,
9021025023156000,Hermelinsvägen,67.138623,20.656950,1,,
9021025023157000,KV Allén,67.136665,20.656279,1,,
9021025023158000,Resecentrum,67.133618,20.651854,1,,
9021025023159000,Centrum,67.132596,20.663272,1,,
9021025023160000,KV Höken,67.132953,20.668682,1,,
9021025023161000,Sjukhuset,67.131683,20.685527,1,,
9021025023162000,Källgatan,67.132899,20.681913,1,,
9021025023163000,Lasarettsgatan,67.134072,20.685016,1,,
9021025023164000,Luleåvägen,67.135457,20.684395,1,,
9021025023165000,Sjötorgsgatan,67.133402,20.675174,1,,
9021025023166000,Repisvaara Norra,67.120153,20.656242,1,,
9021025023167000,Repisvaara C,67.109871,20.667407,1,,
9021025023168000,Repisvaara Södra,67.108446,20.687574,1,,
9021025023169000,Dundret,67.103429,20.639822,1,,
9021025023170000,Apelqvistheden,67.139833,20.694156,1,,
9021025023171000,Myranskolan,67.187244,20.745593,1,,
9021025023172000,Kullevägen,67.184893,20.735244,1,,
9021025023173000,Genvägen,67.182516,20.728967,1,,
9021025023174000,Malmsta,67.172135,20.692610,1,,
9021025023175000,Hedskolan,67.141533,20.669718,1,,
9021025023176000,Sjöparksskolan,67.137116,20.666563,1,,
9021025023478000,Kronsågen norra väg 45,66.985441,19.833581,1,,
9021025023739000,Vassaraträsk väg 45,67.134310,20.575201,1,,
9021025023751000,Malmberget Bstn Tät,67.175409,20.657160,1,,
9021025023752000,Kyrkan Malmberget,67.172284,20.649332,1,,
9021025023755000,Vinbärsvägen Gäl Tät,67.144492,20.665529,1,,
9021025023756000,Centrum,67.132701,20.664564,1,,
9021025023758000,Gällivare Sjukhus Tät,67.131615,20.687177,1,,
9021025023759000,Apelqvistheden,67.139878,20.694165,1,,
9021025023762000,Malmsta,67.172008,20.691473,1,,
9021025023763000,Kullegatan,67.187641,20.746693,1,,
9021025023764000,LKAB,67.186888,20.727105,1,,
9021025023765000,Malmheden,67.148082,20.660703,1,,
9021025023766000,Genvägen,67.182842,20.728872,1,,
9021025023768000,Lulevägen 14,67.135473,20.683011,1,,
9021025023778000,Bergmansgatan 58,67.169389,20.682748,1,,
9021025023782000,Dundret,67.113156,20.626437,1,,
9021025023810000,Andra sidan väg 45,67.129137,20.625007,1,,
9021025023814000,Liikavaara E10,67.080853,21.056065,1,,
9021025023815000,Leipojärvi E10 Ljussignal,67.052357,21.194417,1,,
9021025023817000,Skröven E10 Norra,66.770350,21.864130,1,,
9021025023831000,Torrivaara,66.704457,21.870185,1,,
9021025023833000,Äijävaara Väg 394,67.006893,21.951083,1,,
9021025025001000,Boden Strandplan,65.826955,21.692377,1,,
9021025025002000,Björkskatan Centrum LTN,65.616523,22.178086,1,,
9021025025003000,Ormberget LTN,65.603749,22.184831,1,,
9021025025004000,Kronanvägen LTN,65.599271,22.185950,1,,
9021025025005000,Bensbyvägen LTN,65.597790,22.176201,1,,
9021025025006000,Golfängen LTN,65.594734,22.167069,1,,
9021025025007000,Sunderby Sjukhus LTN,65.670650,21.932466,1,,
9021025025008000,Gammelstad V97 LTN,65.642620,22.013675,1,,
9021025025009000,Luleå Banvägen,65.612414,22.105539,1,,
9021025025010000,Luleå Spantgatan,65.606461,22.122450,1,,
9021025025011000,Avan norra byn,65.689218,21.784274,1,,
9021025025012000,Avan Baronvägen,65.682305,21.799834,1,,
9021025025013000,Luleå Universitet,65.617015,22.131299,1,,
9021025025014000,Luleå Haparandavägen,65.613379,22.133831,1,,
9021025025015000,Luleå Depåvägen,65.609739,22.136470,1,,
9021025025016000,Luleå Midgårdsvägen,65.603443,22.136717,1,,
9021025025017000,Luleå Munkeberg,65.599042,22.138168,1,,
9021025025018000,Luleå Pontusbadet,65.589380,22.146995,1,,
9021025025019000,Luleå Norra Hamn,65.584774,22.147979,1,,
9021025025020000,Alvik Bygdegården,65.572778,21.773948,1,,
9021025025021000,Alvik Knusvägen,65.569816,21.776462,1,,
9021025025022000,Alvik Mässvägen,65.566248,21.782488,1,,
9021025025023000,Luleå Hermelinsparken,65.583563,22.137522,1,,
9021025025024000,Luleå Malmuddsviadukten,65.582002,22.161684,1,,
9021025025025000,Luleå Varvet,65.580369,22.136829,1,,
9021025025026000,Bergnäset Villavägen,65.577635,22.111276,1,,
9021025025027000,Bergnäset Rudtjärnsv,65.577155,22.102241,1,,
9021025025028000,Luleå SSAB,65.558438,22.228177,1,,
9021025025029000,Luleå Smedjegatan,65.583669,22.152431,1,,
9021025025030000,Luleå Shopping,65.585505,22.155448,1,,
9021025025031000,Luleå Rutviksreveln,65.640685,22.116872,1,,
9021025025032000,Luleå Rutviksnäset,65.658122,22.105069,1,,
9021025025033000,Luleå Robertsviksgatan,65.590503,22.154800,1,,
9021025025034000,Ängesbyn E4,65.719182,22.143612,1,,
9021025025093000,Blåsmark Vargstigen,65.266336,21.304346,1,,
9021025025155000,Umeå Mariehems Centrum,63.832571,20.325911,1,,
9021025051542000,"Djäkneboda Norra, Robertsfors",64.013289,20.819528,1,,
9021025051552000,"Dalkarlså E4 Södra, Robertsfors",64.032653,20.841715,1,,
9021025051585000,"Fäboda E4, Robertsfors",64.117518,20.881500,1,,
9021025051605000,"Lägde E4, Robertsfors",64.155933,20.913853,1,,
9021025051665000,"N Heden, Robertsfors",64.240252,21.028396,1,,
9021025051735000,"Daglösten, Skellefteå",64.501051,21.262642,1,,
9021025051750000,"Ljusvattnet E4, Skellefteå",64.540784,21.254886,1,,
9021025051760000,"Bureå Torg, Skellefteå",64.617750,21.200333,1,,
9021025051761000,"Bureå E4, Skellefteå",64.618424,21.178691,1,,
9021025051762000,Bureå Filgatan,64.619376,21.179718,1,,
9021025051765000,Bureå Hemvägen,64.619586,21.197114,1,,
9021025060001000,Älvsbyn Kommunhuset,65.673683,21.005758,1,,
9021025060002000,Älvsbyn Västermalms förskola,65.670588,20.975484,1,,
9021025060003000,Älvsbyn Resecentrum,65.677972,20.994974,1,,
9021025060004000,Älvsbyn Älvsbyhus,65.678279,20.991786,1,,
9021025060005000,Älvsbyn Turistgatan,65.673665,21.028847,1,,
9021025060006000,Nygård,65.657789,21.047741,1,,
9021025060008000,Sågfors,65.670295,20.933936,1,,
9021025060009000,Tvärån Vsk Bråforsvägen,65.568563,21.105798,1,,
9021025060010000,Högheden,65.642789,21.036777,1,,
9021025060011000,Älvsbyn Värmeverket,65.681138,20.971464,1,,
9021025060012000,Tvärån G:a Skolan väg 555,65.566305,21.106575,1,,
9021025060013000,Vidsel Haradsvägen,65.833736,20.513655,1,,
9021025060014000,Älvsbyn Lomtjärnen,65.672748,21.012591,1,,
9021025060015000,Älvsbyn Västermalm Rälsgatan,65.666422,20.980820,1,,
9021025060017000,Älvsbyns Skolområde,65.673315,20.997572,1,,
9021025060021000,Älvsbyn Ishallen,65.672507,21.000703,1,,
9021025060022000,Storforsen,65.851753,20.399400,1,,
9021025060023000,Älvsbyn Björkvallavägen väg 555,65.664989,21.033483,1,,
9021025060024000,Älvsbyn Gammelvägen,65.666633,21.032507,1,,
9021025060032000,Trångfors,65.839454,20.495181,1,,
9021025060061000,Granträsk Älvsbyn,65.542892,20.964160,1,,
9021025060087000,Flurheden väg 94,65.680002,20.745503,1,,
9021025060094000,Nyfors vsk väg 94,65.671466,20.950128,1,,
9021025060095000,Korsträskviken väg 94,65.669636,20.916648,1,,
9021025060097000,Korsträsk väg 94,65.669019,20.868437,1,,
9021025060098000,Storsund vsk väg 94,65.666721,20.892553,1,,
9021025060099000,Lill-Korsträsk väg 94,65.667580,20.905583,1,,
9021025060100000,Vistträsk Affären,65.692170,20.646609,1,,
9021025060101000,Vistträsk väg 94,65.694713,20.650619,1,,
9021025060102000,Olstorpet vsk väg 94,65.693614,20.672927,1,,
9021025060104000,Vistbäcken väg 94,65.693105,20.484193,1,,
9021025060109000,Muskus,65.709269,20.642348,1,,
9021025060110000,Manjärv,65.781709,20.584619,1,,
9021025060164000,Pålsträsk Väg 94,65.652665,21.231646,1,,
9021025060165000,Pålsträsk Byn,65.643380,21.233731,1,,
9021025060169000,Pite Altervattnet,65.696272,21.238972,1,,
9021025060189000,Vidsel Skolan,65.834629,20.508884,1,,
9021025060190000,Vidsel Renkronan,65.831723,20.520084,1,,
9021025060191000,Bredsel Bussgaraget,65.850121,20.459935,1,,
9021025060355000,Grubban vsk Snårbäcksliden,65.605065,21.075691,1,,
9021025060616000,Tvärån norra väg 555,65.570822,21.105238,1,,
9021025060687000,Tvärån Kvarnbackvägen väg 555,65.563005,21.110680,1,,
9021025060812000,Älvsbyn Norra Byn,65.667289,21.039572,1,,
9021025060822000,Småträsk,65.580939,20.986337,1,,
9021025060948000,Sikfors Affären,65.529138,21.194087,1,,
9021025080001000,Luleå Busstation.,65.585871,22.159172,1,,
9021025080008000,Bergnäset Bergnässkolan,65.577869,22.084838,1,,
9021025080009000,Råneå Norra,65.863894,22.308076,1,,
9021025080010000,Gäddvik Frörenserivägen,65.582199,22.042157,1,,
9021025080011000,Gäddvik Gäddviksgården/Bron,65.584441,22.032535,1,,
9021025080013000,Måttsundsvägen Östra,65.532464,21.916196,1,,
9021025080014000,Måttsund Långbackavägen,65.543701,21.901419,1,,
9021025080015000,Antnäs E4,65.548404,21.847000,1,,
9021025080016000,Alvik vsk Ale väg 94,65.567692,21.776235,1,,
9021025080017000,Långnäs Kalvtorget,65.583464,21.774796,1,,
9021025080018000,Ersnäs E4 Ljussignal,65.531419,21.791740,1,,
9021025080020000,Ersnäs Ostibyvägen,65.524875,21.809223,1,,
9021025080021000,Storheden,65.617240,22.041531,1,,
9021025080023000,Gäddvik,65.581600,22.050584,1,,
9021025080028000,Långnäs Långnäsvägen,65.579042,21.770756,1,,
9021025080030000,Alvik Västgårdsvägen,65.575533,21.772994,1,,
9021025080031000,Börjelslandet E4,65.775228,22.168892,1,,
9021025080032000,Nickbyn E4,65.727361,22.151969,1,,
9021025080033000,Persön E4 Ljussignal,65.739753,22.164239,1,,
9021025080034000,Börjelslandet Vsk Sundom,65.769610,22.168006,1,,
9021025080035000,Börjelslandet Södra E4,65.765503,22.167582,1,,
9021025080036000,Börjelslandet E4 Ljussignal,65.782957,22.171201,1,,
9021025080037000,Sundom Vsk Gussövägen,65.772930,22.262453,1,,
9021025080038000,Mjöfjärden Vägskäl,65.818839,22.307084,1,,
9021025080039000,Råneå Busstation,65.856257,22.290256,1,,
9021025080040000,Strömsund E4,65.874135,22.382547,1,,
9021025080041000,Råneå E4,65.849699,22.315269,1,,
9021025080042000,Råneå Skolan,65.854292,22.289670,1,,
9021025080043000,Bälinge Sandtorpsvägen,65.630619,21.928612,1,,
9021025080044000,Måttsund Skolan,65.533199,21.918952,1,,
9021025080045000,Smedsbyn Missionshuset,65.811341,22.015037,1,,
9021025080046000,Ängesbyn Kapellet,65.774901,22.060241,1,,
9021025080047000,Måttsundsvägen Västra,65.536588,21.898774,1,,
9021025080048000,Börtnäsheden väg 580,65.524059,21.952985,1,,
9021025080049000,Örarna Affären,65.708257,22.236938,1,,
9021025080050000,Brändön Torget,65.695422,22.336839,1,,
9021025080051000,Brändön Vändplan,65.686238,22.347844,1,,
9021025080052000,Bensbyn,65.640588,22.235003,1,,
9021025080053000,Kallviken,65.519343,22.002346,1,,
9021025080054000,Bergsskolan skolhållplats,65.573067,22.100531,1,,
9021025080055000,Ralph Lundstengården,65.525574,21.802722,1,,
9021025080056000,Jämtöavan,65.826668,22.522208,1,,
9021025080057000,Brändön Brändövägen,65.690723,22.340545,1,,
9021025080058000,Brändön vsk Fiskehamn,65.697883,22.332391,1,,
9021025080061000,Mörön,65.473787,21.960973,1,,
9021025080063000,Ersnäs Klubbenvägen,65.537845,21.776936,1,,
9021025080064000,Brändön Staffansvägen,65.703262,22.311974,1,,
9021025080065000,Örarna Sågverksvägen,65.712643,22.261587,1,,
9021025080066000,Örarna Bodöbacken,65.709718,22.242835,1,,
9021025080067000,Örnabben,65.698586,22.256232,1,,
9021025080068000,Bensbyn Inre Skäret,65.653410,22.224838,1,,
9021025080069000,Bensbyn Benzeliusskolan,65.640789,22.240026,1,,
9021025080070000,Kallax Hpl Byn,65.529733,22.055278,1,,
9021025080071000,Benbyn Bensbyvägen,65.648089,22.228207,1,,
9021025080072000,Kallax Fiskehamn,65.521080,22.065527,1,,
9021025080073000,Bensbyn Benslinsvägen,65.645146,22.232428,1,,
9021025080074000,Hällbacken,65.627934,22.200077,1,,
9021025080076000,Bensbyn Nordlundsvägen,65.636139,22.224586,1,,
9021025080077000,Sundet Vackerbacken,65.580751,22.063063,1,,
9021025080078000,Smedsbyvägen Norra,65.816413,22.002786,1,,
9021025080079000,Smedsbyn Kolabergsvägen,65.808717,22.021557,1,,
9021025080080000,Smedsbyvägen Södra,65.792069,22.077405,1,,
9021025080081000,Smedsbyn Smedsbygården,65.805223,22.032385,1,,
9021025080082000,Börjelslandet Holmarvägen,65.772412,22.155241,1,,
9021025080083000,Sundom Gamla Skolan,65.771908,22.272938,1,,
9021025080084000,Sundom Bygdegården,65.773174,22.276217,1,,
9021025080085000,Sundom Åkerstrandsvägen,65.774942,22.238733,1,,
9021025080086000,Persön Skolan,65.743767,22.165603,1,,
9021025080087000,Råneå Södra,65.850857,22.275519,1,,
9021025080088000,Södra Smedsbyn Stenviksvägen,65.811019,21.982609,1,,
9021025080089000,Ängesbyn Nickbyvägen,65.725792,22.130841,1,,
9021025080090000,Ängesbyn Storholmsvägen,65.769630,22.080041,1,,
9021025080091000,Ängesbyn vsk Ängesbygården,65.774908,22.060068,1,,
9021025080092000,Ängesbyn Maritholm,65.777448,22.046437,1,,
9021025080093000,Ängesbyn Östlingsvägen,65.777393,22.033250,1,,
9021025080094000,Altersund Strandgården,65.733852,22.171406,1,,
9021025080095000,Bensbyvägen Vsk Brändöv,65.707853,22.234563,1,,
9021025080096000,Smedsbyvägen,65.814575,22.007918,1,,
9021025080097000,Persön Byahuset,65.739385,22.166162,1,,
9021025080098000,Klöverträsk Byaväg Förskolan,65.634015,21.407598,1,,
9021025080099000,Klöverträsk Pingskyrkan,65.637171,21.395210,1,,
9021025080100000,Klöverträsk Affären,65.634800,21.403890,1,,
9021025080101000,Ale Skolhus,65.609378,21.696972,1,,
9021025080102000,Solberg Luleå,65.649609,21.578617,1,,
9021025080103000,Selet vsk Avan,65.664481,21.663540,1,,
9021025080105000,Ale Alviksvägen 165,65.608189,21.699792,1,,
9021025080106000,Klöverträsk S Vsk Väg 94,65.620268,21.412485,1,,
9021025080107000,Bjursträsk Väg 94,65.599389,21.511066,1,,
9021025080108000,Hällfors Väg 94,65.591031,21.654346,1,,
9021025080109000,Ale södra,65.606018,21.704936,1,,
9021025080110000,Fällträsk,65.526719,21.655120,1,,
9021025080111000,Råneå OK/Q8,65.850770,22.275453,1,,
9021025080112000,Rågholmen Väg 94,65.572909,21.745868,1,,
9021025080113000,Ale Vändplats,65.618717,21.679170,1,,
9021025080114000,Avan Föreningshuset,65.679896,21.803860,1,,
9021025080115000,Stenudden Luleå,65.660472,21.829763,1,,
9021025080116000,Bälinge Bälingebyaväg,65.632974,21.926685,1,,
9021025080117000,Hällbacken Björsbyv,65.623961,22.194999,1,,
9021025080118000,Björsbyvägen LTN,65.632693,22.141845,1,,
9021025080119000,Ekobyn LTN,65.639938,22.126393,1,,
9021025080120000,Porsö centrum LTN,65.619123,22.145715,1,,
9021025080122000,Regnvägen LTN,65.611317,22.183035,1,,
9021025080123000,Blidvägen LTN,65.618675,22.177439,1,,
9021025080124000,Sunderby Station,65.671301,21.940871,1,,
9021025080125000,Mjöfjärden,65.808465,22.327069,1,,
9021025080127000,Luleå C,65.584124,22.165185,1,,
9021025080132000,Vsk Kvarnberg,66.129979,22.245375,1,,
9021025080141000,Avan Sandnäsetvägen,65.674636,21.799386,1,,
9021025080149000,Kallax Skanska/BDX,65.550460,22.079211,1,,
9021025080166000,Dalbo Kärrviolgatan,65.629458,22.215387,1,,
9021025080167000,Dalbo Dalbogatan,65.626022,22.211680,1,,
9021025080200000,Jämtön Ica,65.855833,22.497760,1,,
9021025080201000,Jämtön E4 Ljussignal,65.873834,22.489921,1,,
9021025080202000,Högsön,65.908218,22.452604,1,,
9021025080203000,Vitå,65.930536,22.421552,1,,
9021025080204000,Vitåfors,65.951953,22.397633,1,,
9021025080206000,Avafors,66.045421,22.285200,1,,
9021025080209000,Forshed,66.164923,22.199060,1,,
9021025080210000,Långsel,66.208362,22.138396,1,,
9021025080211000,L Näverberg,66.209983,22.143218,1,,
9021025080224000,Bjurå Hpl,66.036221,22.165730,1,,
9021025080228000,Niemisel Affären,66.019873,21.989731,1,,
9021025080231000,Niemiholm,65.974002,22.075519,1,,
9021025080232000,Orrbyn,65.953683,22.118199,1,,
9021025080233000,N Prästholm,65.934149,22.162885,1,,
9021025080234000,S Prästholm,65.934936,22.135619,1,,
9021025080235000,S Orrbyn,65.943929,22.105988,1,,
9021025080236000,S Niemiholm,65.970836,22.058240,1,,
9021025080237000,Böle,65.887558,22.258688,1,,
9021025080544000,Hollsvattnet vsk väg 583,65.651949,21.474694,1,,
9021025080594000,Alvik Alviksvägen,65.561953,21.795973,1,,
9021025080757000,Västmark Sågen,65.669589,21.589165,1,,
9021025080799000,Antnäs Mantalsvägen väg 94,65.554377,21.836265,1,,
9021025080800000,Antnäs Sörbyhallen väg 94,65.556476,21.825802,1,,
9021025080819000,N Sunderbyn V97 infoplats,65.701505,21.818736,1,,
9021025080820000,N Sunderbyn V97 ljussignal,65.681726,21.856684,1,,
9021025080822000,Antnäs OK/Q8 Väg 94,65.551130,21.843637,1,,
9021025080827000,Alviksheden väg 94,65.557173,21.815969,1,,
9021025080830000,Alvik Hpl Sörby Kiosken,65.567426,21.779564,1,,
9021025080831000,Alvik Pålvägen väg 94,65.565176,21.781155,1,,
9021025080832000,Alvik Klubbvägen väg 94,65.562642,21.789482,1,,
9021025080875000,Bodvallen väg 97,65.677718,21.880414,1,,
9021025080967000,Tallberg,66.286237,22.051269,1,,
9021025080996000,Niemisels Station,66.028542,22.002466,1,,
9021025080998000,Ängesträsk väg 356,66.030905,22.140972,1,,
9021025081001000,Piteå Busstation,65.319921,21.473562,1,,
9021025081002000,Öjebyn Framnäs Skola,65.341736,21.391380,1,,
9021025081003000,Piteå Strömbacka,65.314053,21.492416,1,,
9021025081004000,Piteå Kolmilavägen,65.322570,21.465093,1,,
9021025081005000,Stensjökullen,65.244294,21.278100,1,,
9021025081007000,Sundsnäs/piteå,65.443776,19.850448,1,,
9021025081008000,Öjebyn G:a E4 OKQ8,65.345776,21.405423,1,,
9021025081011000,Piteå Norra Ringen,65.328897,21.471989,1,,
9021025081013000,Sikfors Skola,65.533410,21.199136,1,,
9021025081014000,Borgfors,65.508991,21.167468,1,,
9021025081015000,Öjebyn G:a E4 Preem,65.340501,21.407184,1,,
9021025081016000,Piteå Industrigatan,65.323821,21.451456,1,,
9021025081017000,Piteå Hpl Löjan,65.317747,21.482777,1,,
9021025081018000,Bölebomsvägen,65.376101,21.347352,1,,
9021025081019000,Öjebyn Framnäsvägen väg 374,65.354299,21.384249,1,,
9021025081020000,Arnemark Vsk Sjulsmark Väg 374,65.492754,21.211735,1,,
9021025081022000,Piteå Kanalen,65.315478,21.490443,1,,
9021025081023000,Högsböle,65.216594,21.522377,1,,
9021025081024000,Pitsund södra,65.228824,21.515245,1,,
9021025081025000,Pitsund vägskäl Slammemoran,65.239159,21.499715,1,,
9021025081026000,Sundsgatan Västra Tät,65.323921,21.450229,1,,
9021025081027000,Kolmilavägen Tät,65.322448,21.465712,1,,
9021025081028000,Bonäset,65.366249,21.410592,1,,
9021025081030000,Stadsberget Tät,65.317686,21.482721,1,,
9021025081031000,Bastunäs,65.431722,21.640012,1,,
9021025081032000,Rosvik Fältvägen,65.427109,21.671687,1,,
9021025081033000,Rosvik Ok/Q8,65.430601,21.689247,1,,
9021025081034000,Rosvik Norra Lulevägen,65.444545,21.681313,1,,
9021025081035000,Rosvik Rosån,65.435876,21.690370,1,,
9021025081036000,Rosvik Kajvägen,65.427490,21.678106,1,,
9021025081039000,Kanalen Tät,65.315512,21.490257,1,,
9021025081041000,Stadshuset Tät,65.315744,21.497667,1,,
9021025081042000,Piteå Sjukhus Tät,65.312523,21.497916,1,,
9021025081047000,Industrigatan N Tät,65.322322,21.448724,1,,
9021025081048000,Pite Havsbad Vsk Pitsund,65.237069,21.526492,1,,
9021025081049000,Pitsund E4,65.228816,21.507886,1,,
9021025081050000,Jävre E4,65.153564,21.494498,1,,
9021025081052000,Jävrevägen 124,65.147603,21.495549,1,,
9021025081053000,Jävre Sågen,65.144234,21.498738,1,,
9021025081054000,Piteå Kappa,65.317351,21.447161,1,,
9021025081055000,Jävre Lekattvägen,65.150951,21.490558,1,,
9021025081059000,Jävre Barksjövägen,65.152804,21.488197,1,,
9021025081060000,Långträsk Posten,65.384097,20.331073,1,,
9021025081064000,Roknäs G:a Skolvägen,65.345676,21.195754,1,,
9021025081065000,Roknäs Sörvägen,65.346366,21.170137,1,,
9021025081066000,Jävre Gamla affären,65.153808,21.489011,1,,
9021025081067000,Industrigatan S Tät,65.319064,21.448498,1,,
9021025081068000,Stadshotellet Tät,65.318427,21.480966,1,,
9021025081069000,Kappa Tät,65.316915,21.441021,1,,
9021025081071000,Koler,65.501724,20.491583,1,,
9021025081072000,Övermarken Tät,65.292401,21.413776,1,,
9021025081073000,Keupan,65.420250,20.831259,1,,
9021025081074000,Hortlax Hortlaxvägen Tät,65.281976,21.404313,1,,
9021025081075000,Norrbyvägen Tät,65.283777,21.407146,1,,
9021025081077000,Hortlax Skola Tät,65.285162,21.408859,1,,
9021025081078000,Hortlax HC Tät,65.288271,21.413304,1,,
9021025081079000,Hemmingsmark Norra,65.226062,21.293060,1,,
9021025081080000,Storsund,65.577551,20.622947,1,,
9021025081081000,Furulund Tät,65.301539,21.404434,1,,
9021025081086000,Yttersta,65.408518,21.015161,1,,
9021025081088000,Jävrebodarna E4,65.098933,21.501485,1,,
9021025081089000,Lillpite Granträskvägen,65.382937,21.121438,1,,
9021025081090000,Lillpite Bergströmsväg,65.380844,21.129252,1,,
9021025081091000,Långnäs Hultbacken,65.364767,21.273736,1,,
9021025081092000,Sjulnäs Skola,65.345857,21.242249,1,,
9021025081094000,Långnäs Dalknösvägen,65.359295,21.281992,1,,
9021025081095000,Långnäs vsk Berget,65.352922,21.292727,1,,
9021025081096000,Bölebyn Garveri,65.379750,21.301039,1,,
9021025081097000,Bölebyn väg 374,65.385199,21.328911,1,,
9021025081098000,Bergsviken Heden LTN,65.304253,21.396795,1,,
9021025081099000,Kälen,65.205432,21.324491,1,,
9021025081100000,Pålberget Väg 374,65.441568,21.265609,1,,
9021025081101000,Stridholm Norra Väg 374,65.463001,21.231752,1,,
9021025081103000,Böle skola,65.385648,21.312221,1,,
9021025081105000,Sjulsmark Skola,65.523273,21.490820,1,,
9021025081107000,Holmträsk Vsk Jaktbergsvägen,65.504775,21.371821,1,,
9021025081109000,Hemmingsmark Skolan,65.222623,21.284991,1,,
9021025081110000,Hemmingsmark Vändplan,65.221545,21.279558,1,,
9021025081114000,Älvsbyvägen,65.354157,21.382495,1,,
9021025081115000,Blåsmark Skola,65.265147,21.276826,1,,
9021025081118000,Höglandsnäs Södra,65.254831,21.465507,1,,
9021025081119000,Höglandsnäs norra,65.262937,21.449273,1,,
9021025081120000,Grundvik Soldatvägen,65.260140,21.474571,1,,
9021025081121000,Stridholm Södra Väg 374,65.453938,21.239148,1,,
9021025081122000,Grundvik vsk Grundviksvägen/Soldatvägen,65.268435,21.461707,1,,
9021025081123000,Svensbyn,65.311828,21.238761,1,,
9021025081124000,Maran Kullbacksvägen,65.281793,21.440464,1,,
9021025081125000,Blåsmark vsk Hemmingsmark,65.265337,21.293056,1,,
9021025081126000,Hortlax Östanbäcksvägen/Maranvägen,65.281149,21.426207,1,,
9021025081127000,Östra Lidenvägen,65.305402,21.248057,1,,
9021025081129000,Bodsjön,65.292376,21.212713,1,,
9021025081130000,Svensbyn Skolan,65.317135,21.240762,1,,
9021025081131000,Svensbyn Idrottsplats,65.315598,21.240229,1,,
9021025081132000,Framnäsvägen,65.352243,21.378296,1,,
9021025081133000,Rågrindsvägen,65.332285,21.415207,1,,
9021025081137000,Furunäset Trastbackegränd,65.289722,21.491521,1,,
9021025081142000,Björklunda,65.340361,21.403687,1,,
9021025081143000,Hesselvägen,65.340561,21.398560,1,,
9021025081144000,Danagatan,65.340426,21.399996,1,,
9021025081145000,Kvarnen,65.349335,21.397047,1,,
9021025081146000,Strömnäs Ringiusvägen Norra,65.309278,21.508272,1,,
9021025081147000,N Pitholmsvägen Norra,65.304065,21.529900,1,,
9021025081148000,Norrfjärden Backgårdsskolan,65.419365,21.505689,1,,
9021025081149000,Norrfjärden Porsnässkolan,65.420751,21.492811,1,,
9021025081150000,Norrfjärden Kyrkan,65.421678,21.493272,1,,
9021025081152000,Tullnäs vsk Holmträsk,65.416536,21.476189,1,,
9021025081154000,Arnemark Isakstigen väg 374,65.479083,21.220484,1,,
9021025081158000,Långträsk bron,65.518804,21.627940,1,,
9021025081160000,Nybyn Norra Piteå,65.488106,21.413402,1,,
9021025081161000,Pålmark Husfabriken,65.472552,21.440669,1,,
9021025081162000,Holmträsk Skolan,65.512179,21.334772,1,,
9021025081163000,Holmträsk Gamla Affären,65.514799,21.328564,1,,
9021025081164000,Pålmark Lakaforsvägen,65.455349,21.450802,1,,
9021025081165000,Norra Altervägen,65.446492,21.456674,1,,
9021025081166000,Prästgårdsgatan Hälsocentral,65.318367,21.478499,1,,
9021025081167000,Solanderskolan,65.345678,21.402494,1,,
9021025081168000,Nybyn Södra Piteå,65.469263,21.419071,1,,
9021025081169000,Öjagården,65.343255,21.397713,1,,
9021025081170000,OK Degeränget,65.317099,21.433959,1,,
9021025081171000,Öjebyn Havregatan,65.355943,21.401516,1,,
9021025081173000,Bölebyn Bölevägen,65.384168,21.317519,1,,
9021025081175000,Annelund Norra,65.327988,21.452610,1,,
9021025081183000,N Altervägen Circle K,65.412092,21.506005,1,,
9021025081184000,N Altervägen/Backgårdsvägen,65.415985,21.501798,1,,
9021025081185000,N Altervägen ICA,65.420403,21.499174,1,,
9021025081186000,N Altervägen Norrgården,65.426032,21.494262,1,,
9021025081187000,Norrfjärden Folkets hus,65.422122,21.494859,1,,
9021025081188000,Perudden,65.329900,21.261118,1,,
9021025081189000,Västra Lidenvägen,65.303536,21.241478,1,,
9021025081190000,Fagervik,65.319198,21.263049,1,,
9021025081191000,V373 Vsk.Gråträsk,65.416538,19.876569,1,,
9021025081199000,Byskebron Väg 373,65.410188,19.696230,1,,
9021025081200000,Gråträsk,65.485533,19.795866,1,,
9021025081204000,Högbacken Väg 373,65.390365,20.017162,1,,
9021025081233000,Norra Pitholm Ringiusvägen Tät,65.303932,21.519202,1,,
9021025081234000,Södra Pitholmsvägen,65.299890,21.518775,1,,
9021025081235000,Coop,65.316525,21.475584,1,,
9021025081236000,Källbogården,65.319720,21.471022,1,,
9021025081237000,Strömnäsbacken,65.313588,21.523431,1,,
9021025081248000,Sikfors Stationsvägen,65.535613,21.192347,1,,
9021025081271000,Rönnberget Väg 374,65.449352,21.242843,1,,
9021025081300000,Kopparnäs E4,65.403884,21.481977,1,,
9021025081301000,Kopparnäs,65.404903,21.461080,1,,
9021025081302000,Norrfjärden E4,65.408946,21.503527,1,,
9021025081306000,Harrbäcken E4,65.427541,21.571814,1,,
9021025081307000,Rosvik E4,65.450068,21.673534,1,,
9021025081340000,SCA Södra,65.272332,21.513032,1,,
9021025081361000,Blåsmark Kallforsvägen,65.258730,21.269976,1,,
9021025081381000,Åkervägen Öjebyn,65.339742,21.393238,1,,
9021025081382000,Degerängets såg,65.317023,21.427572,1,,
9021025081383000,Bergsviksvägen,65.319144,21.470790,1,,
9021025081385000,Raningsvägen Norra,65.311491,21.384565,1,,
9021025081386000,Raningsvägen Södra,65.309004,21.383693,1,,
9021025081387000,Bergsviken Heden,65.304199,21.396784,1,,
9021025081388000,Furulund,65.301439,21.404713,1,,
9021025081389000,Övermarken,65.292420,21.413758,1,,
9021025081390000,Hortlax Norrbyvägen,65.283710,21.407024,1,,
9021025081391000,Hortlax Hälsocentral,65.288390,21.413501,1,,
9021025081392000,Vålmvägen Hortlax,65.279385,21.403332,1,,
9021025081393000,Degeränget,65.317022,21.418685,1,,
9021025081394000,Taktvägen,65.320084,21.412818,1,,
9021025081395000,Vattenverket,65.323221,21.410969,1,,
9021025081396000,Musikgränd Öjebyn,65.332219,21.404643,1,,
9021025081397000,Basungatan Södra,65.334972,21.402710,1,,
9021025081398000,Basungatan Norra,65.337832,21.397182,1,,
9021025081399000,Färjtorpsvägen,65.341212,21.391440,1,,
9021025081400000,Ridstallet,65.331785,21.447333,1,,
9021025081404000,Stadshotellet Pit Tät,65.318355,21.480972,1,,
9021025081406000,Strömbacka/ Stadshuset Pit Tät,65.315762,21.497197,1,,
9021025081407000,Strömnäs/punkthus,65.313076,21.500876,1,,
9021025081410000,Lövholmsvägen,65.304099,21.491532,1,,
9021025081411000,Klubbgärdet Norra,65.302186,21.487871,1,,
9021025081412000,Munksund Skolan,65.282335,21.496502,1,,
9021025081413000,SCA Norra,65.274093,21.505034,1,,
9021025081414000,Skuthamn Sävgatan,65.270433,21.519431,1,,
9021025081415000,Gamla Pitsundsvägen 1,65.260976,21.536193,1,,
9021025081417000,Granvägen Öjebyn,65.342841,21.395535,1,,
9021025081419000,Back City,65.323033,21.443194,1,,
9021025081420000,Fläktgatan,65.323060,21.437194,1,,
9021025081421000,Batterigatan,65.319105,21.443341,1,,
9021025081422000,Industrigatan S,65.318526,21.448210,1,,
9021025081423000,Industrigatan N,65.322497,21.448847,1,,
9021025081424000,Klubbgärdet Södra,65.299584,21.487459,1,,
9021025081427000,Strömnäs Ringiusvägen Södra,65.306787,21.515563,1,,
9021025081428000,N Pitholmsvägen Södra,65.301643,21.535353,1,,
9021025081429000,Lillåkersvägen Östra,65.299381,21.532386,1,,
9021025081430000,Lillåkersvägen Västra,65.297109,21.517849,1,,
9021025081431000,Furuberget,65.295599,21.502640,1,,
9021025081432000,Mossen,65.294968,21.496010,1,,
9021025081433000,Lf Arena,65.323313,21.477372,1,,
9021025081435000,Långskatavägen,65.338412,21.466827,1,,
9021025081436000,Abborrgatan,65.334912,21.477099,1,,
9021025081437000,Ankarskatavägen Norra,65.331061,21.483782,1,,
9021025081438000,Furunäset Doktorsvillan,65.291462,21.490693,1,,
9021025081439000,Munksund Centrum,65.285641,21.495927,1,,
9021025081440000,Viaduktsvägen,65.277071,21.499597,1,,
9021025081441000,Skuthamn Jungmansgatan,65.266877,21.528691,1,,
9021025081442000,Skuthamn Gamla Pitsundsvägen,65.264580,21.533712,1,,
9021025081443000,Gamla Pitsundsvägen 2,65.258957,21.535561,1,,
9021025081444000,Gamla Pitsundsvägen 3,65.254984,21.534740,1,,
9021025081445000,Gamla Pitsundsvägen 4,65.249948,21.532078,1,,
9021025081446000,Gamla Pitsundsvägen 5,65.247928,21.528655,1,,
9021025081447000,Gamla Pitsundsvägen 6,65.246192,21.526991,1,,
9021025081448000,Gamla Pitsundsvägen 7,65.239377,21.521178,1,,
9021025081450000,Bullerviksvägen,65.310834,21.392558,1,,
9021025081451000,Jollegatan,65.340359,21.471038,1,,
9021025081452000,Ostronstigen,65.338960,21.474269,1,,
9021025081453000,Öringgatan,65.336694,21.476622,1,,
9021025081454000,Ankarsgatavägen,65.328130,21.485151,1,,
9021025081455000,Ankarskatavägen Södra,65.324958,21.486230,1,,
9021025081486000,Nyböle väg 374,65.431680,21.274846,1,,
9021025081497000,Blåsmark vsk Svensbyn,65.265406,21.287960,1,,
9021025081509000,Sikfors Fäbodvägen,65.530872,21.197157,1,,
9021025081526000,Jävre Shell,65.143571,21.502893,1,,
9021025081554000,Edet Mjösjölidvägen,65.327892,21.241781,1,,
9021025081555000,Edet Kornåkersvägen,65.323934,21.246041,1,,
9021025081562000,Blåsmark Tallbacken,65.260723,21.294264,1,,
9021025081580000,Borgforsbron Missionshuset,65.501083,21.177909,1,,
9021025081603000,Kvarnbäcken väg 374,65.406174,21.311055,1,,
9021025081701000,Backevägen Östra,65.320676,21.460918,1,,
9021025081702000,Backevägen Västra,65.322131,21.451653,1,,
9021025081708000,Annelund Södra,65.325410,21.449387,1,,
9021025081710000,Öjebyn Centrum,65.342307,21.396369,1,,
9021025081711000,Reprisen,65.352162,21.392134,1,,
9021025081712000,Grans,65.350361,21.374212,1,,
9021025081713000,Musikhögskolan,65.327732,21.464224,1,,
9021025081714000,Centrum Knuten,65.319939,21.475696,1,,
9021025081715000,Havsbadet Pit Tät,65.236766,21.529237,1,,
9021025081716000,Skuthamn Båtmansgatan,65.269298,21.523245,1,,
9021025081717000,Munksundsvägen Norra,65.288187,21.493318,1,,
9021025081718000,Furunäset,65.293310,21.489415,1,,
9021025081719000,N Pitholm Bryggmansvägen,65.304479,21.522332,1,,
9021025081721000,Framnäs,65.349978,21.365103,1,,
9021025081722000,Hällans Hälsocentral,65.347441,21.412156,1,,
9021025081723000,Räkstigen,65.341664,21.466495,1,,
9021025081724000,Bergsviken Tolvmansvägen,65.308075,21.387863,1,,
9021025081725000,Hortlax Skola,65.285179,21.409121,1,,
9021025081727000,Linneparken,65.338484,21.406991,1,,
9021025081728000,Annelund Berget,65.326577,21.461909,1,,
9021025081729000,Biblioteket Öjebyn,65.345357,21.400465,1,,
9021025081730000,Kullenskolan,65.327842,21.408876,1,,
9021025081733000,Tunnan,65.332799,21.480648,1,,
9021025081735000,Pitholms Skola,65.297210,21.508086,1,,
9021025081736000,Svartudden,65.315814,21.520494,1,,
9021025081738000,Hällanvägen,65.345939,21.407548,1,,
9021025081739000,Nolia City Konferens,65.320466,21.485582,1,,
9021025081740000,Backevägen,65.321856,21.456329,1,,
9021025081741000,Kyrkogården,65.325306,21.465790,1,,
9021025081742000,Kolmilavägen/Källbogatan,65.322915,21.468353,1,,
9021025081743000,Prästgårdsgatan Stadsberget,65.316723,21.483912,1,,
9021025081744000,Trädgårdsgatan,65.313572,21.487772,1,,
9021025081745000,Kvantum Tät,65.315022,21.479649,1,,
9021025081748000,Rågrindsvägen Norra,65.334551,21.411600,1,,
9021025081749000,Rågrindsvägen Södra,65.330435,21.419462,1,,
9021025081751000,Bergsviken Yrkesvägen,65.305139,21.390854,1,,
9021025081756000,Storgatan,65.321017,21.467147,1,,
9021025081770000,Österbo,65.315131,21.489141,1,,
9021025081771000,Durruddsvägen,65.346253,21.271797,1,,
9021025081772000,Hamnplan Södra,65.313763,21.483681,1,,
9021025081773000,Durrudden,65.342281,21.289491,1,,
9021025081827000,Vitsand väg 373,65.314403,21.332513,1,,
9021025081841000,Arnemark Arnemarksvägen,65.488624,21.210013,1,,
9021025081865000,Piteå Stadshuset/Strömb,65.315767,21.496832,1,,
9021025081886000,Svensbyliden,65.306096,21.259191,1,,
9021025081891000,Piteå Älvdals Sjukhus,65.312441,21.497941,1,,
9021025081896000,Lindbäcksstadion väg 373,65.317437,21.291666,1,,
9021025081902000,Lillpite Affären,65.373354,21.155844,1,,
9021025081903000,Lillpite Kraftstationen,65.371682,21.158866,1,,
9021025081904000,Lillpite Hängbrovägen,65.377040,21.143228,1,,
9021025081905000,Lillpite Bonsavägen,65.369302,21.165343,1,,
9021025081912000,Södra Arnemark väg 374,65.484010,21.219038,1,,
9021025081963000,Strömnäs Skola,65.311910,21.505293,1,,
9021025081989000,Roknäs Helmers väg,65.340506,21.223505,1,,
9021025081991000,Stockbäcken Norra,65.348473,21.107890,1,,
9021025081992000,Stockbäcken,65.347513,21.115471,1,,
9021025081993000,Stockbäcken vsk Kalamark,65.342834,21.136145,1,,
9021025081994000,Roknäs Ömansvägen,65.345116,21.145868,1,,
9021025081995000,Roknäs Sågen,65.346009,21.151348,1,,
9021025081996000,Roknäs Kvarnen,65.346411,21.185761,1,,
9021025081997000,Roknäs vsk Storsöder,65.343840,21.206834,1,,
9021025081998000,Åträsk väg 543,65.425731,20.952777,1,,
9021025081999000,Åträsk By,65.446208,20.935562,1,,
9021025082002000,Boden Garnis,65.820001,21.660254,1,,
9021025082004000,Boden Resecentrum,65.828740,21.706991,1,,
9021025082005000,Boden Södra Svartbyn V 97,65.796585,21.731093,1,,
9021025082007000,Boden Medborgarplatsen,65.825280,21.690082,1,,
9021025082010000,N Bredåker Norra Vsk Väg 97,65.922758,21.311572,1,,
9021025082012000,Boden Sturegatan,65.820691,21.702418,1,,
9021025082013000,Kusån,65.842247,21.543346,1,,
9021025082014000,Rasmyran vsk skjutfältet väg 97,65.858608,21.462909,1,,
9021025082015000,N Bredåker Byn,65.904947,21.343483,1,,
9021025082017000,Rågraven vsk väg 97,65.941591,21.275253,1,,
9021025082018000,Boden Järpgatan,65.816407,21.708237,1,,
9021025082019000,Sävast V97 ljussignal,65.752362,21.765133,1,,
9021025082020000,Övre Svartlå Väg 97 Norra,66.012791,21.171160,1,,
9021025082023000,Brobyn,65.854516,21.922352,1,,
9021025082024000,Harads Shell,66.085087,20.953232,1,,
9021025082026000,Forsnäs norra vsk väg 97,66.173068,20.880391,1,,
9021025082027000,Boden Stureskolan,65.819561,21.692766,1,,
9021025082028000,Kårbron Tät,65.812416,21.677305,1,,
9021025082029000,Dammvägen Tät,65.807604,21.676775,1,,
9021025082030000,Bodträskfors,66.086080,20.902270,1,,
9021025082032000,Örtvägen Tät,65.773099,21.711267,1,,
9021025082033000,Körvelvägen Tät,65.773633,21.720459,1,,
9021025082034000,Sävastvägen V588 Tät,65.777417,21.692714,1,,
9021025082035000,Medborgarplatsen Tät,65.825280,21.690082,1,,
9021025082036000,Boden Resecentrum Tät,65.828730,21.707011,1,,
9021025082038000,Industrivägen Tät,65.810382,21.727168,1,,
9021025082039000,Öändan Sävastvägen,65.777481,21.692685,1,,
9021025082040000,Spikvägen Tät,65.804554,21.734247,1,,
9021025082041000,Nämndvägen Tät,65.800243,21.737485,1,,
9021025082042000,Vaktvägen Tät,65.796286,21.740168,1,,
9021025082043000,Mandelvägen Tät,65.770607,21.740881,1,,
9021025082044000,Trångagatan Tät,65.761997,21.738720,1,,
9021025082045000,Båtvägen Tät,65.757797,21.744430,1,,
9021025082046000,Storsand väg 97,66.285457,20.818078,1,,
9021025082047000,Lillgärdesvägen Tät,65.756975,21.755341,1,,
9021025082048000,Edefors Hpl väg 97,66.212081,20.874656,1,,
9021025082049000,Heden Pärlstigen Tät,65.816205,21.569888,1,,
9021025082050000,Svartbyleden Tät,65.808857,21.762182,1,,
9021025082051000,Svedjebacka Tät,65.819341,21.734941,1,,
9021025082052000,Renvägen Boden Tät,65.814776,21.716201,1,,
9021025082053000,Vittjärv Skolan Tät,65.852291,21.585077,1,,
9021025082054000,Fyragårdarshöjden Tät,65.802729,21.756374,1,,
9021025082056000,Brännberg Vsk väg 356,65.766299,21.330847,1,,
9021025082057000,Vändträsk väg 356,65.761331,21.499559,1,,
9021025082059000,Campus,65.822317,21.667454,1,,
9021025082060000,Heden Skola,65.816978,21.572058,1,,
9021025082061000,Lillån,65.825235,21.696394,1,,
9021025082062000,Degerbäcken Jvgstn,65.838731,21.410485,1,,
9021025082063000,Degerbäcken Byn,65.861474,21.397725,1,,
9021025082065000,S Bredåker,65.903245,21.314612,1,,
9021025082066000,Östra leden E4,64.762176,21.003190,1,,
9021025082069000,Åminne,66.028809,21.006024,1,,
9021025082071000,Ågärdan Tät,65.837838,21.611224,1,,
9021025082072000,Skäret Väg 97 LTN,65.843809,21.601374,1,,
9021025082073000,Skellefteå Solbacken E4,64.762160,21.004177,1,,
9021025082074000,Skellefteå Slalomvägen E4,64.759735,20.970176,1,,
9021025082075000,Skellefteå Torsgatan E4,64.757251,20.963783,1,,
9021025082076000,Norran,64.751387,20.960198,1,,
9021025082077000,Hornsberg,65.771969,21.703033,1,,
9021025082078000,Hornsberg LTN,65.771969,21.703033,1,,
9021025082079000,Unbyn Södra,65.693683,21.781289,1,,
9021025082080000,Skogså Skola,65.872359,21.885788,1,,
9021025082082000,Fagernäs Skolvägen Tät,65.823248,21.726800,1,,
9021025082088000,Övre Svartlå skolan,66.013641,21.175406,1,,
9021025082089000,Östra Strandvägen,65.828746,21.698210,1,,
9021025082091000,Råbäcken/Boden,65.772266,21.685094,1,,
9021025082093000,Unbyn Gymnastiken,65.714971,21.750699,1,,
9021025082094000,Unbyn Sörbyvägen,65.716986,21.744059,1,,
9021025082095000,Unbyn Unbyvägen,65.715371,21.749917,1,,
9021025082098000,Kaptensgatan,65.824161,21.669105,1,,
9021025082100000,V Torpgärdan Gjutvägen,65.803431,21.717033,1,,
9021025082106000,Sävastnäs V97 ljussignal,65.720698,21.792185,1,,
9021025082107000,Allégatan,65.828113,21.717165,1,,
9021025082109000,Lindgatan,65.826995,21.723472,1,,
9021025082112000,Sävast Kantarellvägen,65.764050,21.755794,1,,
9021025082113000,Sparrisvägen,65.769628,21.734127,1,,
9021025082114000,Torpgärdan Prylvägen,65.807492,21.730648,1,,
9021025082115000,Sjövägen Boden tät,65.821003,21.727599,1,,
9021025082116000,Ängesträsk Byn,66.009585,22.160482,1,,
9021025082117000,Sävast Dillvägen LTN,65.770215,21.724361,1,,
9021025082120000,Kusån Vsk väg 97,65.850735,21.523122,1,,
9021025082121000,Ridhuset,65.799534,21.715632,1,,
9021025082122000,Slipvägen,65.805782,21.710709,1,,
9021025082123000,Eyvind Johnsons väg,65.841258,21.702140,1,,
9021025082124000,Raspvägen,65.842267,21.699538,1,,
9021025082125000,Kittelvägen,65.852336,21.701217,1,,
9021025082126000,Buddbyvägen 7,65.857688,21.692645,1,,
9021025082127000,Nedre Svartlå väg 97,65.997421,21.215454,1,,
9021025082128000,N Järnvägsgatan,65.821666,21.685764,1,,
9021025082129000,Svartbyleden 56 Tät,65.810950,21.753738,1,,
9021025082130000,Vittjärv Ostantillvägen,65.851608,21.593623,1,,
9021025082131000,Vittjärv Ostantillvägen Tät,65.851608,21.593623,1,,
9021025082133000,Björknäs Hälsocentral,65.827873,21.681413,1,,
9021025082134000,Sanden Hälsocentral,65.819711,21.694227,1,,
9021025082135000,Boden Lakaträsk,66.277546,21.122971,1,,
9021025082136000,Boden Gullträsk,66.196436,21.179220,1,,
9021025082137000,Svedjan,65.727778,21.744030,1,,
9021025082138000,Övrebodarna,65.745493,21.725945,1,,
9021025082139000,Strömskatan,65.748873,21.722104,1,,
9021025082140000,Bjässmoran,65.758631,21.706283,1,,
9021025082141000,Boden ICA Kvantum,65.816766,21.708034,1,,
9021025082142000,Boden Willys,65.816130,21.707252,1,,
9021025082143000,Boden Stora Coop,65.824878,21.684634,1,,
9021025082144000,Gunnarsbyn,66.087719,21.804186,1,,
9021025082145000,Sörbyn,66.049923,21.780858,1,,
9021025082146000,Skogså,65.872359,21.885788,1,,
9021025082147000,Harads,66.085267,20.952980,1,,
9021025082148000,Övre Svartlå,66.013666,21.175455,1,,
9021025082149000,Unbyn,65.712455,21.756349,1,,
9021025082150000,Ågärdan väg 97,65.837649,21.611445,1,,
9021025082151000,Inbyn,65.914424,21.848294,1,,
9021025082152000,Svalget,65.857885,21.791824,1,,
9021025082153000,Nedre Svartå,65.998688,21.212188,1,,
9021025082154000,Rågraven,65.942182,21.274829,1,,
9021025082155000,Svarbyleden Musikantvägen,65.798092,21.754335,1,,
9021025082156000,Boden Sveavägen,65.817766,21.666898,1,,
9021025082157000,Boden Kyrkogårdsgatan,65.815359,21.673809,1,,
9021025082158000,Buddbyvägen 52,65.863643,21.689001,1,,
9021025082159000,Vinterstigen,65.839236,21.704157,1,,
9021025082162000,Stenhuggaregatan,65.836257,21.706942,1,,
9021025082163000,Dalbacka,66.082469,21.833260,1,,
9021025082164000,Lassbyn 217,66.056746,21.818709,1,,
9021025082165000,Sörbyn 233,66.059921,21.791787,1,,
9021025082166000,Gunnarsbyn Älvskolan,66.086055,21.806232,1,,
9021025082173000,Överstbyn vsk Näset,66.100137,21.792702,1,,
9021025082195000,Sävast Morotsvägen,65.772268,21.722008,1,,
9021025082196000,Sävast Morotsvägen TÄT,65.772268,21.722008,1,,
9021025082198000,Abramsvägen Tät,65.846400,21.599016,1,,
9021025082199000,Harads Tree Hotel,66.072303,20.982110,1,,
9021025082200000,Gunnarsbyn Affären,66.087719,21.804186,1,,
9021025082201000,Lassbyn Vsk Byn V 760,66.064903,21.821418,1,,
9021025082202000,Lindgrensudden väg 97,66.298897,20.896238,1,,
9021025082203000,Sörbyn vändplan,66.049075,21.770249,1,,
9021025082211000,Valvträsk,66.148911,21.692463,1,,
9021025082217000,Överstbyn vsk Brändheden,66.113398,21.759425,1,,
9021025082227000,Sundsnäs/Boden,66.039027,21.804551,1,,
9021025082228000,Degersel vsk Sörbyn,66.002362,21.859886,1,,
9021025082229000,Nedre Flåsjön,65.960801,21.847807,1,,
9021025082231000,Hundsjö,65.949231,21.804583,1,,
9021025082232000,Åskogen,65.924472,21.822195,1,,
9021025082233000,Inbyn väg 356,65.914424,21.848294,1,,
9021025082235000,Svartbäcken,65.904024,21.796659,1,,
9021025082237000,Ubbyn,65.885928,21.939789,1,,
9021025082239000,Skogså väg 356,65.873396,21.876443,1,,
9021025082242000,Vibbyn Hpl väg 383,65.833669,21.952084,1,,
9021025082243000,Gemträsk,65.878635,22.020515,1,,
9021025082244000,Lassbyn väg 760,66.067370,21.844611,1,,
9021025082245000,Flarken Hpl väg 383,65.815742,21.887912,1,,
9021025082250000,Notträsk,65.856077,21.842354,1,,
9021025082267000,Niemisel Kvarnåskolan,66.017877,21.992343,1,,
9021025082290000,Nedre Svartlå vsk Storklinten väg 97,66.003436,21.193269,1,,
9021025082313000,Harads norra byn väg 97,66.102251,20.938491,1,,
9021025082436000,Bodgärdan väg 97,66.110111,20.931699,1,,
9021025082459000,Övre Svartlå Väg 97 Södra,66.005797,21.183915,1,,
9021025082482000,Rasmyran södra byn väg 97,65.855930,21.475941,1,,
9021025082505000,Svalget väg 356,65.857885,21.791824,1,,
9021025082596000,Torpgärdsskolan,65.804954,21.738771,1,,
9021025082599000,N Bredåker Södra Vsk Väg 97,65.889251,21.389978,1,,
9021025082612000,Prylvägen tät,65.807303,21.730890,1,,
9021025082613000,Gränsvägen Boden tät,65.822383,21.722650,1,,
9021025082614000,Sävast Teknikvägen,65.755051,21.758290,1,,
9021025082615000,Sävast Lillgärdesvägen,65.756847,21.755618,1,,
9021025082616000,Sävast Trångagatan,65.761595,21.738890,1,,
9021025082617000,Boden Garvaregatan,65.824851,21.684408,1,,
9021025082618000,Sävast Örtvägen,65.773098,21.711069,1,,
9021025082619000,Sävast Dillvägen,65.770277,21.724376,1,,
9021025082620000,Hamptjärnmoran Spelv,65.812167,21.587672,1,,
9021025082621000,Boden Glimmervägen,65.815642,21.584066,1,,
9021025082622000,Garnisonsgatan Manhem,65.825966,21.710085,1,,
9021025082623000,Dammvägen,65.807649,21.678189,1,,
9021025082624000,Garnis väg 97,65.824512,21.663719,1,,
9021025082626000,Trångfors Snårvägen,65.814552,21.621777,1,,
9021025082627000,Hedsvedjevägen,65.815609,21.634414,1,,
9021025082628000,Vittjärv Skolan,65.852291,21.585077,1,,
9021025082629000,Western Farm,65.854498,21.696505,1,,
9021025082631000,S Svartbyn Vaktvägen,65.796360,21.740119,1,,
9021025082632000,Skäret väg 97,65.843809,21.601374,1,,
9021025082633000,Trångforsvägen,65.821336,21.609269,1,,
9021025082634000,Bränslanvägen,65.794615,21.718075,1,,
9021025082635000,Sävastön Boden Business Park,65.757821,21.760879,1,,
9021025082637000,Sävast Sparrisvägen,65.769628,21.734127,1,,
9021025082639000,Bodsvedjan Svedjevägen,65.796740,21.685453,1,,
9021025082640000,Svedjebacka,65.819341,21.734941,1,,
9021025082641000,Svartbyvägen,65.825745,21.716247,1,,
9021025082642000,Musikantvägen,65.798092,21.754335,1,,
9021025082643000,Fyragårdarshöjden,65.802729,21.756374,1,,
9021025082644000,Svartbyleden väg 603,65.808857,21.762182,1,,
9021025082645000,Sävast Svampvägen,65.765805,21.749104,1,,
9021025082646000,Torpgärdan Spikvägen,65.804529,21.734198,1,,
9021025082648000,Bodsvedjan vsk Åbergsleden,65.798908,21.697155,1,,
9021025082649000,Fagernäs Skolvägen,65.823248,21.726800,1,,
9021025082650000,Rörviksgatan,65.830668,21.701111,1,,
9021025082651000,Brännastrand Bod Tät,65.826696,21.699101,1,,
9021025082652000,Svartbjörsbyn Skola,65.848461,21.701819,1,,
9021025082653000,Torpgärdan Nämndvägen,65.800097,21.737517,1,,
9021025082655000,Buddbyn Norddalsvägen,65.861698,21.690181,1,,
9021025082656000,Margaretagatan,65.823011,21.681924,1,,
9021025082657000,uggle,65.820438,21.702668,1,,
9021025082658000,Lillågatan Bod Tät,65.825308,21.696345,1,,
9021025082659000,Kårbron,65.812416,21.677305,1,,
9021025082661000,Sanden Bod Tät,65.819924,21.691269,1,,
9021025082663000,Trångfors Krokforsvägen,65.815613,21.614711,1,,
9021025082664000,Svartbjörsbyn Skola Tät,65.848461,21.701819,1,,
9021025082665000,Kyrkogårdsgatan Boden tät,65.815035,21.674744,1,,
9021025082666000,Torpgärdan Industrivägen,65.810344,21.727203,1,,
9021025082667000,Hedenbrovägen,65.819841,21.664431,1,,
9021025082668000,Grepvägen,65.846204,21.704552,1,,
9021025082669000,Spadvägen Bod Tät,65.844958,21.702090,1,,
9021025082670000,Granholmsvägen,65.868442,21.686586,1,,
9021025082671000,Sveavägen Boden tät,65.817026,21.669055,1,,
9021025082672000,Svartbyleden 29 Boden tät,65.815934,21.741550,1,,
9021025082673000,Kanslihusvägen tät,65.805964,21.676137,1,,
9021025082674000,Gammelängsgatan,65.828106,21.727548,1,,
9021025082675000,Gamla Sävast,65.763399,21.764141,1,,
9021025082676000,S Svartbyn Kandidatv,65.793457,21.743483,1,,
9021025082677000,Armévägen Boden tät,65.801220,21.677334,1,,
9021025082678000,Bodsvedjan Flottiljvägen,65.798447,21.693475,1,,
9021025082679000,Strömsegatan,65.826495,21.722215,1,,
9021025082680000,Banjovägen,65.811768,21.607435,1,,
9021025082682000,Björkelundsvägen,65.835300,21.707490,1,,
9021025082683000,Boden Arena,65.810298,21.701216,1,,
9021025082684000,Brogatan,65.825561,21.679983,1,,
9021025082685000,Smörblomman,65.825561,21.679983,1,,
9021025082686000,Buddbyn Vändplats,65.876317,21.679575,1,,
9021025082689000,Sävast Mandelvägen,65.770652,21.740672,1,,
9021025082692000,Vittjärvsvägen Boden tät,65.851647,21.593544,1,,
9021025082693000,Instrumentvägen Bod Tät,65.811461,21.594423,1,,
9021025082694000,Heden Skola Tät,65.816804,21.574520,1,,
9021025082696000,Sävast Båtvägen,65.757798,21.744408,1,,
9021025082698000,Bodsvedjan Infaterivägen Tät,65.798173,21.683545,1,,
9021025082699000,Garnis Bod Tät,65.819725,21.661354,1,,
9021025082700000,Medborgarplatsen Bod Tät,65.825325,21.690071,1,,
9021025082706000,Rotlundavägen,65.873798,21.682823,1,,
9021025082707000,Landstingsvägen,65.819114,21.668830,1,,
9021025082708000,Lundagård,65.820722,21.675693,1,,
9021025082709000,Erikslunden,65.829715,21.728776,1,,
9021025082710000,Svartbyleden 36 Boden tät,65.812214,21.752494,1,,
9021025082711000,Ugglegatan Boden tät,65.818806,21.706023,1,,
9021025082712000,Björknäsvallen tät,65.825380,21.672983,1,,
9021025082713000,Signalvägen tät,65.816555,21.656001,1,,
9021025082714000,Tuppvägen tät,65.814977,21.647413,1,,
9021025082715000,Vitmossevägen tät,65.820259,21.604943,1,,
9021025082716000,Ravinvägen tät,65.818458,21.612546,1,,
9021025082768000,Forsnäs södra vsk väg 97,66.172410,20.878791,1,,
9021025082791000,Harads Hälsocentral Väg 97,66.081584,20.959566,1,,
9021025082814000,N Bredåker Älgskyttebanan Väg 97,65.897205,21.379325,1,,
9021025082837000,Sörbyn Hockeyplan,66.049923,21.780858,1,,
9021025082841000,Överäng Byn,65.958664,21.254035,1,,
9021025082847000,Boden Brogat Parken,65.825503,21.680080,1,,
9021025082851000,Boden Lillån,65.825235,21.696394,1,,
9021025082853000,Boden Nordpoolen,65.825253,21.700569,1,,
9021025082862000,Boden Manhem,65.824949,21.712639,1,,
9021025082873000,Boden Campus,65.822518,21.667830,1,,
9021025082878000,Torpgärdan Renvägen,65.815265,21.714953,1,,
9021025082931000,Överäng vsk väg 97,65.972479,21.255618,1,,
9021025082954000,Harads vsk Bergvägen väg 97,66.096946,20.942781,1,,
9021025083001000,Haparanda Tornio Resecentrum,65.843408,24.139110,1,,
9021025083002000,Haparanda Stadshotell,65.835776,24.134153,1,,
9021025083003000,Tornedalsskolan,65.834144,24.130140,1,,
9021025083004000,Haparanda Marielund,65.852567,24.114974,1,,
9021025083005000,Mattila,65.858073,24.118508,1,,
9021025083006000,Haparanda Vårdcentral,65.839346,24.134281,1,,
9021025083007000,Vuono Östra E4,65.827011,24.076134,1,,
9021025083008000,Vuono byn,65.828418,24.059693,1,,
9021025083009000,Salmis E4,65.808952,23.979038,1,,
9021025083010000,Salmis byn,65.805978,24.001240,1,,
9021025083011000,Nikkala E4,65.811442,23.912260,1,,
9021025083012000,Säivis E4,65.842577,23.661231,1,,
9021025083013000,Säivis Byn,65.832400,23.665724,1,,
9021025083014000,Nikkala Skolan,65.805249,23.915315,1,,
9021025083015000,Västra Nikkala,65.809743,23.849376,1,,
9021025083016000,Haparanda Hamn,65.771267,23.903446,1,,
9021025083018000,Seskarö Fridhem,65.741887,23.721903,1,,
9021025083021000,N Vojakkala väg 99,65.895206,24.102344,1,,
9021025083023000,Ö Vojakkala väg 99,65.932125,24.077595,1,,
9021025083025000,Karungi Byn,66.041553,23.961440,1,,
9021025083027000,Tossa,66.020496,23.852231,1,,
9021025083028000,Kärrbäck,66.045300,23.643997,1,,
9021025083029000,Oja,66.031990,23.439660,1,,
9021025083030000,Lappträsk Lantmännen,66.005687,23.486665,1,,
9021025083031000,Tandfors,65.970054,23.460627,1,,
9021025083037000,Korpikylä Väg 99,66.117774,23.916881,1,,
9021025083038000,Matkakoski väg 99,66.140903,23.899463,1,,
9021025083039000,Skogsvägen,65.826483,24.130685,1,,
9021025083040000,Lunden,65.831539,24.137642,1,,
9021025083041000,Leipijärvi,65.953848,23.865526,1,,
9021025083042000,Kattilasaari,65.947513,23.798296,1,,
9021025083049000,Keräsjoki,65.859400,23.877955,1,,
9021025083052000,Matkakoski Byn,66.146919,23.924412,1,,
9021025083055000,Torget/Torggatan,65.836389,24.136491,1,,
9021025083059000,Coop,65.840644,24.134329,1,,
9021025083060000,Vårdcentralen,65.837772,24.133658,1,,
9021025083061000,Rajala (FIN),65.843295,24.145136,1,,
9021025083068000,Långbacken Hpl väg 398,65.981408,23.462343,1,,
9021025083069000,Kauppila Vsk V398,66.010706,23.485524,1,,
9021025083070000,Resecentrum Buss,65.842800,24.138163,1,,
9021025083071000,Långforsen,65.989836,23.476910,1,,
9021025083072000,Kärrbäck vsk Keräsvaara,66.044418,23.651184,1,,
9021025083073000,Kärrbäck vsk Kangas,66.040589,23.689225,1,,
9021025083074000,N Korpikylä,66.160523,23.860942,1,,
9021025083075000,Karhuvaara,66.020598,23.869349,1,,
9021025083077000,Marielundsskolan/Språkskolan,65.850787,24.115475,1,,
9021025083078000,Vuono E4,65.821375,24.042025,1,,
9021025083079000,Vuono Västra E4,65.818338,24.025369,1,,
9021025083080000,Montessori,65.839529,24.126141,1,,
9021025083082000,Aspen,65.833719,24.130155,1,,
9021025083083000,Harrioja E4,65.838297,23.727643,1,,
9021025083085000,Björnholmsg/Ängsg,65.836610,24.120562,1,,
9021025083087000,Företagscentrum,65.826302,24.114324,1,,
9021025083089000,Odlingsvägen,65.824481,24.133932,1,,
9021025083093000,Pitkäjärvi,65.963853,23.941145,1,,
9021025083094000,Pellinpää E4,65.811043,23.942727,1,,
9021025083095000,Sangijärvi E4,65.843965,23.625664,1,,
9021025083098000,Haparanda Jvstn,65.828367,24.131894,1,,
9021025083099000,Haparanda Aspen,65.833798,24.130357,1,,
9021025083100000,Karungi väg 99,66.045942,23.946816,1,,
9021025083102000,Montessori LTN,65.839529,24.126141,1,,
9021025083103000,Niva Väg 99,66.134457,23.904950,1,,
9021025083104000,Mattila Väg 99,65.866851,24.121169,1,,
9021025083105000,Nikkala Miljöstation,65.803737,23.918269,1,,
9021025083106000,Karungi Skola,66.045069,23.951022,1,,
9021025083116000,Kukkolaforsen väg 99,65.961545,24.034334,1,,
9021025083158000,Gamla E4 Skönvik,65.825099,24.089195,1,,
9021025083159000,Järnvägsstation Hpl,65.828329,24.132102,1,,
9021025083160000,Storg/Järnvägsg,65.828635,24.141521,1,,
9021025083161000,Ringv/Åkergatan,65.835876,24.114814,1,,
9021025083162000,Björka/ICA,65.841952,24.118994,1,,
9021025083163000,Marielundsv Södra,65.848162,24.105648,1,,
9021025083164000,Marielundsv Västra,65.852713,24.094557,1,,
9021025083165000,Marielundsv Norra,65.857665,24.096165,1,,
9021025083166000,Storg/Nygatan,65.833039,24.139608,1,,
9021025083167000,Aspstranden,65.835793,24.129729,1,,
9021025083168000,Lappia Yrkesskola (FIN),65.851576,24.136417,1,,
9021025083169000,Torppi Handelsområde (FIN),65.843543,24.183865,1,,
9021025083170000,Torneå Badhus (FIN),65.839901,24.177821,1,,
9021025083174000,Storg/Odlingsvägen,65.824251,24.140599,1,,
9021025083175000,Företagsv/Tjädervägen,65.827217,24.106999,1,,
9021025083176000,Köpmansg/Ripvägen,65.831762,24.112088,1,,
9021025083177000,Lahti,65.783337,23.919704,1,,
9021025083178000,Björka E4,65.839873,24.113403,1,,
9021025083813000,Vitvattnets Vsk,66.024952,23.499753,1,,
9021025083816000,Seskarö E4,65.813775,23.856783,1,,
9021025084001000,Kiruna Busstation,67.852304,20.225093,1,,
9021025084004000,Busstationen,67.852304,20.225093,1,,
9021025084005000,Kiruna Kvantum Malmvägen,67.848807,20.254665,1,,
9021025084006000,Kurravaara vändplan,67.949324,20.375429,1,,
9021025084008000,Kurravaara Södra,67.933639,20.351955,1,,
9021025084010000,Kiruna Polisstation LTN,67.857271,20.222821,1,,
9021025084012000,OK Parken,67.857108,20.230506,1,,
9021025084013000,Kvantum Malmvägen,67.848736,20.254628,1,,
9021025084014000,Kiruna Flygplats E10,67.845709,20.349391,1,,
9021025084016000,Kiruna Församlingshemmet,67.851933,20.236833,1,,
9021025084017000,Dübengatan,67.865346,20.224590,1,,
9021025084018000,Kiruna Triangeln,67.847303,20.244213,1,,
9021025084019000,Kiruna Lombolo Backe,67.841877,20.263005,1,,
9021025084024000,Radarn,67.839542,20.282050,1,,
9021025084025000,Kauppinen västra,67.840865,20.463129,1,,
9021025084027000,Vittangi Skolan,67.677899,21.639246,1,,
9021025084028000,Kauppinen östra,67.846087,20.488935,1,,
9021025084029000,Laxforsen norra,67.857413,20.535427,1,,
9021025084030000,JTM Jukkasjärvi,67.856739,20.557445,1,,
9021025084031000,Jukkasjärvi Måttvägen,67.852720,20.585232,1,,
9021025084035000,Kurravaara gamla Konsum,67.943898,20.354971,1,,
9021025084036000,Kurravaara Piksivägen,67.950527,20.337212,1,,
9021025084038000,Karesuando Dosan,68.440455,22.484933,1,,
9021025084039000,Karesuando skolor,68.440073,22.474458,1,,
9021025084041000,Kiruna Sporthallen LTN,67.854522,20.235111,1,,
9021025084042000,Porfyren LTN,67.865957,20.216249,1,,
9021025084044000,Jägaregatan LTN,67.854617,20.255108,1,,
9021025084046000,Lombolo Backe LTN,67.841850,20.262667,1,,
9021025084047000,Solvinden LTN,67.833075,20.280975,1,,
9021025084048000,Stamgatan LTN,67.831404,20.289790,1,,
9021025084049000,Tuolluvaara LTN,67.847385,20.344051,1,,
9021025084050000,Kiruna Sjukhus,67.850061,20.241238,1,,
9021025084051000,Kiruna Radarn,67.839579,20.282009,1,,
9021025084053000,Kiruna Hagelstigen,67.853173,20.277097,1,,
9021025084055000,Låktatjåkka E10,68.427257,18.322884,1,,
9021025084056000,Övre Parakka,67.493391,21.681282,1,,
9021025084057000,Nedre Parakka,67.488010,21.693098,1,,
9021025084058000,Kvantum Österleden,67.848375,20.255035,1,,
9021025084060000,Hagelstigen,67.853173,20.277097,1,,
9021025084062000,Kiruna Trädgårdsgatan,67.847245,20.230775,1,,
9021025084063000,Hjalmar Lundbohmsvägen,67.852588,20.223909,1,,
9021025084065000,Lokstallarna,67.873587,20.192767,1,,
9021025084066000,Järnvägsstationen,67.868417,20.199608,1,,
9021025084067000,Karhuniemi,67.875859,20.193815,1,,
9021025084068000,Lokstallarna,67.873587,20.192767,1,,
9021025084069000,Högalidsskolan,67.859607,20.232791,1,,
9021025084070000,Triangelskolan,67.850758,20.247680,1,,
9021025084071000,Sameskolan,67.850035,20.268971,1,,
9021025084072000,Raketskolan,67.838798,20.281336,1,,
9021025084075000,Kiruna Flygplats,67.825857,20.335201,1,,
9021025084077000,Kiruna Stormarknaden,67.845758,20.256416,1,,
9021025084078000,Kiruna Kastanjen,67.838184,20.272556,1,,
9021025084079000,Kiruna Kyrkan,67.852930,20.232189,1,,
9021025084100000,Kurravaara,67.937444,20.348877,1,,
9021025084101000,Krokvik E10,67.932734,20.066908,1,,
9021025084102000,Rautas E10,67.994718,19.883429,1,,
9021025084103000,Rensjön E10,68.071714,19.829213,1,,
9021025084104000,Bergfors E10,68.148673,19.781074,1,,
9021025084105000,Torneträsk E10,68.220497,19.712973,1,,
9021025084106000,Stenbacken E10,68.252920,19.509794,1,,
9021025084107000,Kaisepakte E10,68.289113,19.299426,1,,
9021025084108000,Stordalen E10,68.345420,19.064449,1,,
9021025084109000,Abisko Östra E10,68.350876,18.831069,1,,
9021025084110000,Abisko Turist E10,68.358164,18.780110,1,,
9021025084111000,Björkliden Stationshuset,68.406693,18.683885,1,,
9021025084112000,Vassijaure E10,68.429936,18.267667,1,,
9021025084114000,Riksgränsen vändplan,68.428302,18.120640,1,,
9021025084135000,Vivungi,67.755297,22.170061,1,,
9021025084137000,Svappavaara LKAB,67.640246,21.017808,1,,
9021025084140000,Maskinvägen,67.847732,20.297622,1,,
9021025084142000,Vasallen,67.854637,20.255064,1,,
9021025084143000,Glaciären LTN,67.838220,20.294551,1,,
9021025084144000,Industrivägen LTN,67.846253,20.287981,1,,
9021025084145000,Stadshustorget LTN,67.848248,20.303030,1,,
9021025084146000,Signalen LTN,67.839154,20.286378,1,,
9021025084149000,IRF E10,67.843129,20.409827,1,,
9021025084150000,Kiruna IRF,67.840885,20.409098,1,,
9021025084151000,Kauppinen Byn,67.844168,20.479026,1,,
9021025084152000,Laxforsen Södra,67.854019,20.520351,1,,
9021025084153000,Jukkasjärvi Icehotel,67.851125,20.595813,1,,
9021025084154000,Paksuniemi Vändplan,67.826167,20.729121,1,,
9021025084155000,Altajärvi E10,67.814601,20.584010,1,,
9021025084156000,Svappavaara Konsum,67.648368,21.046799,1,,
9021025084160000,Vittangi Busstation,67.677645,21.638047,1,,
9021025084162000,Kuoksu,67.641688,21.949625,1,,
9021025084164000,Lainio,67.766071,22.341122,1,,
9021025084165000,Merasjärvi,67.548105,21.924676,1,,
9021025084166000,Masugnsbyn,67.458265,22.039775,1,,
9021025084167000,Poikkijärvi,67.838905,20.599991,1,,
9021025084168000,Jukkasjärvi Kyrkan,67.846729,20.619437,1,,
9021025084170000,N Soppero Kiosken,68.047258,21.762530,1,,
9021025084171000,Ö Soppero Uno-x,68.090639,21.700778,1,,
9021025084172000,Idivuoma Gamla Affären,68.315914,22.135162,1,,
9021025084173000,Mertajärvi väg 45,68.350818,22.190536,1,,
9021025084175000,Karesuando Busstation,68.441363,22.478906,1,,
9021025084180000,Kuttainen,68.382298,22.817346,1,,
9021025084181000,Suijavaara,68.202155,22.758406,1,,
9021025084182000,Paittasjärvi,68.240864,22.879521,1,,
9021025084183000,Saivomuotka,68.133001,23.155619,1,,
9021025084832000,Katterjokk E10,68.425967,18.161959,1,,
9021025084903000,Tuolluvaara Vändplan,67.849166,20.323207,1,,
9021025084905000,Lastvägen,67.847623,20.296672,1,,
9021025084912000,Signalen,67.839154,20.286378,1,,
9021025084917000,Solvinden,67.833075,20.280975,1,,
9021025084921000,Lombolo Strand,67.833264,20.259884,1,,
9021025084924000,Lombolo Backe,67.841730,20.263120,1,,
9021025084925000,Stormarknaden,67.845758,20.256416,1,,
9021025084926000,Triangeln,67.847235,20.243724,1,,
9021025084927000,Trädgårdsgatan Kir Tät,67.847217,20.230794,1,,
9021025084930000,Jägaregatan,67.854637,20.255064,1,,
9021025084932000,Sjukhuset Kir Tät,67.850430,20.240880,1,,
9021025084936000,LKAB Kir Tät,67.851090,20.197102,1,,
9021025084942000,Kiruna Polisstation,67.857271,20.222821,1,,
9021025084943000,Norrmalm,67.859614,20.224575,1,,
9021025084946000,Porfyren,67.865957,20.216249,1,,
9021025084951000,Planetvägen,67.841290,20.302164,1,,
9021025084952000,Kiruna Sporthallen,67.854522,20.235111,1,,
9021025084953000,Kiruna Församlingshemmet,67.851807,20.236809,1,,
9021025091000000,"Kinnbäck, Skellefteå",65.073766,21.449392,1,,
9021025091070000,Jörn Järnvägsstation,65.054392,20.031232,1,,
9021025091071000,Östersund Järnvägsstation,63.170771,14.636209,1,,
9021025091171000,"Ånäset E4, Robertsfors",64.273061,21.047936,1,,
9021025091245000,Skellefteå Anderstorp E4,64.744699,20.959363,1,,
9021025091246000,Skellefteå Sörböle E4,64.736776,20.966079,1,,
9021025091255000,"Broänge E4, Skellefteå",64.388960,21.298417,1,,
9021025091300000,Björkhammar,64.903224,21.072633,1,,
9021025091395000,C Storuman,65.096278,17.116484,1,,
9021025091396000,S Storuman,65.092703,17.107692,1,,
9021025091402000,N Skarvsjöby,64.978123,17.116821,1,,
9021025091471000,Vilhelmina,64.627090,16.664754,1,,
9021025091472000,Vk S.vilhelmina,64.620245,16.672564,1,,
9021025091473000,Hotell Vilhelmina,64.624426,16.656997,1,,
9021025091523000,Dorotea Hotell,64.258622,16.426366,1,,
9021025091524000,Storberget Sö,64.255067,16.439610,1,,
9021025091548000,Östersund Busstation,63.176162,14.639209,1,,
9021025091551000,Hoting Jrnvägsstation,64.115800,16.200621,1,,
9021025091553000,Hammerdal Busstation,63.582695,15.350299,1,,
9021025091554000,Strömsund Busstation,63.849847,15.555396,1,,
9021025091778000,Umeå Busstation,63.828039,20.273188,1,,
9021025091781000,Umeå Samhällsvetarhuset,63.822255,20.301711,1,,
9021025091782000,Umeå Universitetssjukhuset,63.818927,20.298331,1,,
9021025091789000,"Anumark E4, Umeå",63.853902,20.380876,1,,
9021025091790000,"Sävar E4, Umeå",63.899127,20.564426,1,,
9021025091791000,"Djäkneboda E4, Robertsfors",64.000439,20.790917,1,,
9021025091793000,"Dalkarlså E4, Robertsfors",64.031566,20.841929,1,,
9021025091794000,"Bygdeå E4, Robertsfors",64.060965,20.847760,1,,
9021025091796000,"Öndebyn E4, Robertsfors",64.085149,20.868276,1,,
9021025091797000,"Bäck E4, Robertsfors",64.100258,20.870267,1,,
9021025091798000,"Rickleå E4, Robertsfors",64.133484,20.891893,1,,
9021025091799000,"Laxbacken E4, Robertsfors",64.138705,20.894045,1,,
9021025091800000,"Sikeå E4, Robertsfors",64.168416,20.926337,1,,
9021025091804000,"Klintsjön E4, Robertsfors",64.211390,21.016171,1,,
9021025091807000,"Grimsmark E4, Robertsfors",64.308700,21.136235,1,,
9021025091809000,"Lövånger Busstation, Skellefteå",64.371243,21.306211,1,,
9021025091810000,"Lövsele E4, Skellefteå",64.345831,21.287011,1,,
9021025091811000,"Mångbyn E4, Skellefteå",64.402322,21.290427,1,,
9021025091812000,"Hökmark E4, Skellefteå",64.428095,21.270177,1,,
9021025091813000,"Önnesmark E4, Skellefteå",64.464775,21.293663,1,,
9021025091814000,"Övre Bäck E4, Skellefteå",64.510671,21.256968,1,,
9021025091815000,Ljusvattnet,64.539386,21.252788,1,,
9021025091818000,"Yttervik E4, Skellefteå",64.666226,21.115701,1,,
9021025091821000,Skellefteå Busstation,64.751721,20.957587,1,,
9021025091822000,"Boviken E4, Skellefteå",64.801562,21.030139,1,,
9021025091823000,Kåge E4,64.832237,20.988662,1,,
9021025091824000,"Frostkåge E4, Skellefteå",64.866239,21.017939,1,,
9021025091826000,"Ostvik E4, Skellefteå",64.888114,21.048753,1,,
